{"version": 0.6, "generator": "Overpass API 0.7.59.4 36d058c8", "osm3s": {"timestamp_osm_base": "2023-03-26T11:46:54Z", "copyright": "The data included in this document is from www.openstreetmap.org. The data is made available under ODbL."}, "elements": [{"type": "node", "id": 13707878, "lat": 55.6867243, "lon": 12.5700724, "tags": {"admin_level": "2", "alt_name:fi": "K\u00f6pis", "alt_name:gl": "Copenhague", "capital": "yes", "country": "DK", "ele": "24", "name": "K\u00f8benhavn", "name:am": "\u12ae\u1350\u1295\u1200\u1308\u1295", "name:an": "Copenaguen", "name:ang": "C\u0113apmannh\u00e6fen", "name:ar": "\u0643\u0648\u0628\u0646\u0647\u0627\u063a\u0646", "name:arc": "\u0729\u0718\u0726\u0722\u0717\u0710\u0713\u0722", "name:arz": "\u0643\u0648\u0628\u064a\u0646\u0647\u0627\u062c\u064a\u0646", "name:ast": "Conpen\u1e25ague", "name:bat-smg": "Kuopenhaga", "name:be": "\u041a\u0430\u043f\u0435\u043d\u0433\u0430\u0433\u0435\u043d", "name:be-tarask": "\u041a\u0430\u043f\u044d\u043d\u0433\u0430\u0433\u0435\u043d", "name:bg": "\u041a\u043e\u043f\u0435\u043d\u0445\u0430\u0433\u0435\u043d", "name:bn": "\u0995\u09cb\u09aa\u09c7\u09a8\u09b9\u09c7\u0997\u09c7\u09a8", "name:bo": "\u0f41\u0f7c\u0f0b\u0f55\u0f7a\u0f53\u0f0b\u0f67\u0f0b\u0f40\u0f7a\u0f53\u0f0d", "name:br": "Kopenhagen", "name:bs": "Kopenhagen", "name:ca": "Copenhaguen", "name:ckb": "\u06a9\u06c6\u067e\u0646\u06be\u0627\u06af\u0646", "name:co": "Copenaghen", "name:cs": "Koda\u0148", "name:csb": "K\u00f2penhaga", "name:cu": "\u041a\u043e\u0431\u0454\u043d\u0445\u0430\u0432\u043d\u044a", "name:cv": "\u041a\u043e\u043f\u0435\u043d\u0433\u0430\u0433\u0435\u043d", "name:cy": "Copenhagen", "name:da": "K\u00f8benhavn", "name:de": "Kopenhagen", "name:diq": "Kopenhag", "name:ee": "Copenhagen", "name:el": "\u039a\u03bf\u03c0\u03b5\u03b3\u03c7\u03ac\u03b3\u03b7", "name:en": "Copenhagen", "name:eo": "Kopenhago", "name:es": "Copenhague", "name:et": "Kopenhaagen", "name:eu": "Kopenhage", "name:ext": "Copenagui", "name:fa": "\u06a9\u067e\u0646\u0647\u0627\u06af", "name:fi": "K\u00f6\u00f6penhamina", "name:fiu-vro": "Kop\u00f5nhaag\u00f5n", "name:fo": "Keypmannahavn", "name:fr": "Copenhague", "name:frr": "Kopenhuuwen", "name:fy": "Kopenhagen", "name:ga": "C\u00f3banh\u00e1van", "name:gd": "Copenhagen", "name:gl": "Copenhaguen", "name:gv": "K\u00f8benhavn", "name:he": "\u05e7\u05d5\u05e4\u05e0\u05d4\u05d2\u05df", "name:hi": "\u0915\u094b\u092a\u0928\u0939\u0947\u0917\u0928", "name:hif": "Copenhagen", "name:hr": "Kopenhagen", "name:ht": "Kop\u00e8nag", "name:hu": "Koppenh\u00e1ga", "name:hy": "\u053f\u0578\u057a\u0565\u0576\u0570\u0561\u0563\u0565\u0576", "name:ia": "Copenhagen", "name:ilo": "Copenhagen", "name:io": "K\u00f8benhavn", "name:is": "Kaupmannah\u00f6fn", "name:it": "Copenaghen", "name:ja": "\u30b3\u30da\u30f3\u30cf\u30fc\u30b2\u30f3", "name:ka": "\u10d9\u10dd\u10de\u10d4\u10dc\u10f0\u10d0\u10d2\u10d4\u10dc\u10d8", "name:kk": "\u041a\u043e\u043f\u0435\u043d\u0433\u0430\u0433\u0435\u043d", "name:kl": "K\u00f8benhavn", "name:kn": "\u0c95\u0ccb\u0caa\u0ca8\u0ccd\u0cb9\u0cbe\u0c97\u0cc6\u0ca8\u0ccd", "name:ko": "\ucf54\ud39c\ud558\uac90", "name:ku": "Kopenhag", "name:kv": "\u041a\u043e\u043f\u0435\u043d\u0433\u0430\u0433\u0435\u043d", "name:kw": "Kopenhavn", "name:ky": "\u041a\u043e\u043f\u0435\u043d\u0433\u0430\u0433\u0435\u043d", "name:la": "Hafnia", "name:lb": "Kopenhagen", "name:lij": "Copenaghen", "name:lmo": "Cupenaghen", "name:lt": "Kopenhaga", "name:ltg": "Kopenhaga", "name:lv": "Kopenh\u0101gena", "name:mg": "Kaopenagy", "name:mi": "Copenhagen", "name:mk": "\u041a\u043e\u043f\u0435\u043d\u0445\u0430\u0433\u0435\u043d", "name:ml": "\u0d15\u0d4b\u0d2a\u0d4d\u0d2a\u0d7b\u0d39\u0d47\u0d17\u0d7b", "name:mr": "\u0915\u094b\u092a\u0928\u0939\u0947\u0917\u0928", "name:mt": "Kopen\u0127agen", "name:my": "\u1000\u102d\u102f\u1015\u1004\u103a\u101f\u1031\u1002\u1004\u103a\u1019\u103c\u102d\u102f\u1037", "name:nah": "Copenague", "name:nan": "Copenhagen", "name:nap": "Copenaghen", "name:nds": "Kopenhagen", "name:nl": "Kopenhagen", "name:nn": "K\u00f8benhavn", "name:no": "K\u00f8benhavn", "name:nov": "K\u00f8benhavn", "name:oc": "Copenaga", "name:os": "\u041a\u043e\u043f\u0435\u043d\u0433\u0430\u0433\u0435\u043d", "name:pl": "Kopenhaga", "name:pms": "Copen\u00e0ghen", "name:pnb": "\u06a9\u0648\u067e\u0646 \u06c1\u06cc\u06af\u0646", "name:pt": "Copenhaga", "name:qu": "K\u00f8benhavn", "name:ro": "Copenhaga", "name:roa-rup": "Copenhagen", "name:ru": "\u041a\u043e\u043f\u0435\u043d\u0433\u0430\u0433\u0435\u043d", "name:sa": "\u0915\u094b\u092a\u0928\u0939\u093e\u0917\u0928", "name:sah": "\u041a\u043e\u043f\u0435\u043d\u04bb\u0430\u0433\u0435\u043d", "name:sc": "Copenaghen", "name:scn": "Copenaghen", "name:sco": "Copenhagen", "name:se": "K\u00f8benh\u00e1pman", "name:simple": "Copenhagen", "name:sk": "Koda\u0148", "name:sl": "K\u00f8benhavn", "name:so": "Kobanhaygan", "name:sr": "\u041a\u043e\u043f\u0435\u043d\u0445\u0430\u0433\u0435\u043d", "name:st": "Copenhagen", "name:sv": "K\u00f6penhamn", "name:szl": "Kopynhaga", "name:ta": "\u0b95\u0bcb\u0baa\u0ba9\u0bbe\u0bb5\u0ba9\u0bcd", "name:te": "\u0c15\u0c4b\u0c2a\u0c46\u0c28\u0c4d\u200c\u0c39\u0c3e\u0c17\u0c28\u0c4d", "name:tg": "\u041a\u043e\u043f\u0435\u043d\u04b3\u0430\u0433\u0435\u043d", "name:th": "\u0e42\u0e04\u0e40\u0e1b\u0e19\u0e40\u0e2e\u0e40\u0e01\u0e19", "name:tl": "Copenhagen", "name:tr": "Kopenhag", "name:tt": "\u041a\u043e\u043f\u0435\u043d\u0433\u0430\u0433\u0435\u043d", "name:tzl": "Cj\u00f6vnahaun", "name:udm": "\u041a\u043e\u043f\u0435\u043d\u0433\u0430\u0433\u0435\u043d", "name:ug": "Kop\u00e9nhag\u00e9n", "name:uk": "\u041a\u043e\u043f\u0435\u043d\u0433\u0430\u0433\u0435\u043d", "name:ur": "\u06a9\u0648\u067e\u0646 \u06c1\u06cc\u06af\u0646", "name:vec": "Copenaghen", "name:vep": "Kopengagen", "name:vi": "Copenhagen", "name:vo": "K\u00f8benhavn", "name:war": "Copenhagen", "name:xmf": "\u10d9\u10dd\u10de\u10d4\u10dc\u10f0\u10d0\u10d2\u10d4\u10dc\u10d8", "name:yi": "\u05e7\u05d0\u05e4\u05e0\u05d4\u05d0\u05d2\u05df", "name:yo": "Copenhagen", "name:yue": "\u54e5\u672c\u54c8\u6839", "name:zh": "\u54e5\u672c\u54c8\u6839", "place": "city", "population": "613288", "population:date": "2018-01-01", "short_name": "cph;kbh", "source:name:br": "ofis publik ar brezhoneg", "source:population": "http://www.statistikbanken.dk/BY1", "wikidata": "Q1748", "wikipedia": "da:K\u00f8benhavn"}}, {"type": "node", "id": 25156429, "lat": 57.3097439, "lon": 12.1661474}, {"type": "node", "id": 25929985, "lat": 59.3251172, "lon": 18.0710935, "tags": {"admin_level": "2", "alt_name:fit": "Tokholmi", "alt_name:gl": "Stockholm", "alt_name:he": "\u05e9\u05d8\u05d5\u05e7\u05d4\u05d5\u05dc\u05dd", "capital": "yes", "name": "Stockholm", "name:am": "\u1235\u1276\u12ae\u120d\u121d", "name:an": "Estocolmo", "name:ang": "Stoccholm", "name:ar": "\u0633\u062a\u0648\u0643\u0647\u0648\u0644\u0645", "name:arc": "\u0723\u071b\u0718\u0729\u0717\u0718\u0720\u0721", "name:arz": "\u0633\u062a\u0648\u0643\u0647\u0648\u0644\u0645", "name:ast": "Estocolmu", "name:az": "Stokholm", "name:bat-smg": "Stuokhuolms", "name:be": "\u0421\u0442\u0430\u043a\u0433\u043e\u043b\u044c\u043c", "name:be-tarask": "\u0421\u0442\u0430\u043a\u0433\u043e\u043b\u044c\u043c", "name:bg": "\u0421\u0442\u043e\u043a\u0445\u043e\u043b\u043c", "name:bn": "\u09b8\u09cd\u099f\u0995\u09b9\u09cb\u09ae", "name:bo": "\u0f66\u0f72\u0f0b\u0f4f\u0f7c\u0f42\u0f0b\u0f67\u0f7c\u0f0b\u0f63\u0f72\u0f58\u0f0d", "name:br": "Stockholm", "name:ca": "Estocolm", "name:ckb": "\u0633\u062a\u06c6\u06a9\u06be\u06c6\u06b5\u0645", "name:co": "Stoccolma", "name:cs": "Stockholm", "name:csb": "Sztokh\u00f2lm", "name:cv": "\u0421\u0442\u043e\u043a\u0433\u043e\u043b\u044c\u043c", "name:da": "Stockholm", "name:de": "Stockholm", "name:diq": "Stokholm", "name:el": "\u03a3\u03c4\u03bf\u03ba\u03c7\u03cc\u03bb\u03bc\u03b7", "name:en": "Stockholm", "name:eo": "Stokholmo", "name:es": "Estocolmo", "name:et": "Stockholm", "name:eu": "Stockholm", "name:ext": "Estocolmu", "name:fa": "\u0627\u0633\u062a\u06a9\u0647\u0644\u0645", "name:fi": "Tukholma", "name:fit": "Stokholmi", "name:fiu-vro": "Stokholm", "name:fo": "Stokkh\u00f3lmur", "name:fr": "Stockholm", "name:fy": "Stokholm", "name:ga": "St\u00f3c\u00f3lm", "name:gl": "Estocolmo", "name:he": "\u05e1\u05d8\u05d5\u05e7\u05d4\u05d5\u05dc\u05dd", "name:hi": "\u0938\u094d\u091f\u0949\u0915\u0939\u094b\u092e", "name:hr": "Stockholm", "name:ht": "Stokolm", "name:hu": "Stockholm", "name:hy": "\u054d\u057f\u0578\u0584\u0570\u0578\u056c\u0574", "name:is": "Stokkh\u00f3lmur", "name:it": "Stoccolma", "name:iu": "\u1505\u1451\u1483\u14f1\u14ea\u14bb", "name:ja": "\u30b9\u30c8\u30c3\u30af\u30db\u30eb\u30e0", "name:ka": "\u10e1\u10e2\u10dd\u10d9\u10f0\u10dd\u10da\u10db\u10d8", "name:kab": "Stukulm", "name:kk": "\u0421\u0442\u043e\u043a\u0433\u043e\u043b\u044c\u043c", "name:ko": "\uc2a4\ud1a1\ud640\ub984", "name:koi": "\u0421\u0442\u0451\u043a\u043e\u043b\u043d\u0430", "name:ku": "Stokholm", "name:kv": "\u0421\u0442\u043e\u043a\u0433\u043e\u043b\u044c\u043c", "name:la": "Holmia", "name:lad": "Estokolma", "name:lij": "Stoccolma", "name:lmo": "Stuculma", "name:lt": "Stokholmas", "name:lv": "Stokholma", "name:lzh": "\u65af\u5fb7\u54e5\u723e\u6469", "name:mdf": "\u0421\u0442\u043e\u043a\u043e\u043b\u044c\u043c\u0430", "name:mhr": "\u0421\u0442\u043e\u043a\u0433\u043e\u043b\u044c\u043c", "name:mk": "\u0421\u0442\u043e\u043a\u0445\u043e\u043b\u043c", "name:ml": "\u0d38\u0d4d\u0d31\u0d4d\u0d31\u0d4b\u0d15\u0d4d\u0d15\u0d4d\u200c\u0d39\u0d4b\u0d02", "name:mr": "\u0938\u094d\u091f\u0949\u0915\u0939\u094b\u092e", "name:mrj": "\u0421\u0442\u043e\u043a\u0433\u043e\u043b\u044c\u043c", "name:mt": "Stokkolma", "name:my": "\u1005\u1010\u1031\u102c\u1037\u101f\u102f\u1019\u103a\u1038\u1019\u103c\u102d\u102f\u1037", "name:myv": "\u0421\u0442\u043e\u043a\u0433\u043e\u043b\u044c\u043c \u043e\u0448", "name:mzn": "\u0627\u0633\u062a\u06a9\u0647\u0644\u0645", "name:nah": "Estocolmo", "name:nds": "Stockholm", "name:nl": "Stockholm", "name:no": "Stockholm", "name:oc": "Estoc\u00f2lme", "name:os": "\u0421\u0442\u043e\u043a\u0433\u043e\u043b\u044c\u043c", "name:pl": "Sztokholm", "name:pms": "Stoc\u00f2lma", "name:pnb": "\u0633\u0679\u0627\u06a9\u06c1\u0648\u0645", "name:pt": "Estocolmo", "name:ru": "\u0421\u0442\u043e\u043a\u0433\u043e\u043b\u044c\u043c", "name:sah": "\u0421\u0442\u043e\u043ah\u043e\u043b\u044c\u043c", "name:sc": "Stoccolma", "name:se": "Stockholbma", "name:sju": "Tj\u00e5sskasulla", "name:sk": "\u0160tokholm", "name:sma": "Stuehkie", "name:smj": "Stockhoalmma", "name:smn": "Tukholma", "name:sq": "Stokholmi", "name:sr": "\u0421\u0442\u043e\u043a\u0445\u043e\u043b\u043c", "name:sv": "Stockholm", "name:szl": "Sztokholm", "name:ta": "\u0bb8\u0bcd\u0b9f\u0bbe\u0b95\u0bcd\u0bb9\u0bcb\u0bae\u0bcd", "name:tg": "\u0421\u0442\u043e\u043a\u04b3\u043e\u043b\u043c", "name:th": "\u0e2a\u0e15\u0e2d\u0e01\u0e42\u0e2e\u0e25\u0e4c\u0e21", "name:tt": "\u0421\u0442\u043e\u043a\u04bb\u043e\u043b\u043c", "name:udm": "\u0421\u0442\u043e\u043a\u0433\u043e\u043b\u044c\u043c", "name:ug": "Stokgolm", "name:uk": "\u0421\u0442\u043e\u043a\u0433\u043e\u043b\u044c\u043c", "name:ur": "\u0633\u0679\u0627\u06a9\u06c1\u0648\u0645", "name:uz": "Stokgolm", "name:vec": "Stoc\u00f3lma", "name:wo": "Stokolm", "name:yi": "\u05e9\u05d8\u05d0\u05e7\u05d4\u05d0\u05dc\u05dd", "name:yue": "\u65af\u5fb7\u54e5\u723e\u6469", "name:zh": "\u65af\u5fb7\u54e5\u723e\u6469", "name:zh-Hans": "\u65af\u5fb7\u54e5\u5c14\u6469", "place": "city", "population": "829417", "ref:se:pts:postort": "STOCKHOLM", "ref:se:scb": "0336", "short_name": "Sthlm", "source:name:br": "ofis publik ar brezhoneg", "wikidata": "Q1754", "wikipedia": "sv:Stockholm"}}, {"type": "node", "id": 29223139, "lat": 65.6990923, "lon": 24.1657752}, {"type": "node", "id": 30147521, "lat": 57.1057412, "lon": 12.2502949, "tags": {"name": "Varberg", "name:he": "\u05d5\u05e8\u05d1\u05e8\u05d2", "name:ru": "\u0412\u0430\u0440\u0431\u0435\u0440\u0433", "place": "town", "population": "27602", "ref:se:pts:postort": "VARBERG", "ref:se:scb": "4156", "wikidata": "Q21168", "wikipedia": "sv:Varberg"}}, {"type": "node", "id": 30147825, "lat": 56.904894, "lon": 12.4912926, "tags": {"name": "Falkenberg", "name:ru": "\u0424\u0430\u043b\u044c\u043a\u0435\u043d\u0431\u0435\u0440\u0433", "place": "town", "population": "20035", "ref:se:pts:postort": "FALKENBERG", "ref:se:scb": "3920", "wikidata": "Q54766", "wikipedia": "sv:Falkenberg"}}, {"type": "node", "id": 32617505, "lat": 58.9346933, "lon": 11.6690637}, {"type": "node", "id": 32617506, "lat": 58.934798, "lon": 11.6702333}, {"type": "node", "id": 32617507, "lat": 58.9346947, "lon": 11.6721959}, {"type": "node", "id": 32617508, "lat": 58.93471, "lon": 11.6723123}, {"type": "node", "id": 32617509, "lat": 58.9348212, "lon": 11.6729719}, {"type": "node", "id": 32617510, "lat": 58.9348624, "lon": 11.6736611}, {"type": "node", "id": 32617511, "lat": 58.934807, "lon": 11.6750139}, {"type": "node", "id": 32617512, "lat": 58.9350644, "lon": 11.6758604}, {"type": "node", "id": 40162645, "lat": 64.7609885, "lon": 13.8552702, "tags": {"description": "Riksr\u00f8ys 197B", "historic": "boundary_stone", "man_made": "cairn", "name:no": "R\u00f8dikklumpr\u00f8ysa", "ref": "Rr197B", "source": "Kartverket/Riksgrenseprotokollene", "start_date": "1986"}}, {"type": "node", "id": 40162687, "lat": 59.5632454, "lon": 11.7036585, "tags": {"alt_name:no": "Mellomr\u00f8ysa", "description": "Riksr\u00f8ys 35", "height": "1.45-2.00", "historic": "boundary_stone", "man_made": "cairn", "name:no": "Hansebakkr\u00f8ysa", "name:sv": "Mellanr\u00f6set", "ref": "Rr35", "source": "Kartverket/Riksgrenseprotokollene", "start_date": "1753"}}, {"type": "node", "id": 40162704, "lat": 64.6399568, "lon": 13.7054732, "tags": {"description": "Riksr\u00f8ys 196", "historic": "boundary_stone", "man_made": "cairn", "name:no": "Linmor\u00f8ysa", "ref": "Rr196", "source": "Kartverket/Riksgrenseprotokollene", "start_date": "1760"}}, {"type": "node", "id": 40162733, "lat": 64.9145263, "lon": 14.0464264}, {"type": "node", "id": 40162773, "lat": 63.9742223, "lon": 12.6835681, "tags": {"description": "Riksr\u00f8ys 175", "ele": "705.3", "historic": "boundary_stone", "man_made": "cairn", "name:no": "Jalkeds\u00e5ejjier\u00f8ysa", "ref": "Rr175", "source": "Kartverket/Riksgrenseprotokollene", "start_date": "1759"}}, {"type": "node", "id": 40162778, "lat": 61.040324, "lon": 12.3793237, "tags": {"description": "Riksr\u00f8ys 112", "ele": "655.5", "historic": "boundary_stone", "man_made": "cairn", "name:no": "Harbergsr\u00f8ysa", "name:sv": "Harbergsr\u00f6set", "ref": "Rr112", "source": "Kartverket/Riksgrenseprotokollene", "start_date": "1756"}}, {"type": "node", "id": 40162780, "lat": 59.899693, "lon": 11.9860156}, {"type": "node", "id": 40162818, "lat": 58.9891645, "lon": 11.4616092}, {"type": "node", "id": 40162862, "lat": 59.8898047, "lon": 12.1742925, "tags": {"description": "Riksr\u00f8ys 64", "historic": "boundary_stone", "man_made": "cairn", "name": "\u00c5sebakksr\u00f8ysa", "name:no": "\u00c5sebakksr\u00f8ysa", "old_name": "Orebakke R\u00f8set", "ref": "Rr64", "source": "Kartverket/Riksgrenseprotokollene", "ssr:stedsnr": "959268", "start_date": "1754"}}, {"type": "node", "id": 40162869, "lat": 59.1149793, "lon": 11.339912}, {"type": "node", "id": 40162917, "lat": 59.0995769, "lon": 11.2890427}, {"type": "node", "id": 40162921, "lat": 64.9389362, "lon": 14.0772996, "tags": {"alt_name:no": "Giedtietjahker\u00f8ysa", "description": "Riksr\u00f8ys 201. Riksmerke 254", "ele": "869.4", "height": "1.3-1.8(1.20 pa)", "historic": "boundary_stone", "man_made": "cairn", "name:no": "Nordsvellsr\u00f8ysa", "name:sv": "Nordsvellsr\u00f6set?", "old_name": "Nordsvells R\u00f8set", "ref": "Rr201", "source": "Kartverket/Riksgrenseprotokollene", "start_date": "1760", "width": "2.6(2.35)"}}, {"type": "node", "id": 40163105, "lat": 61.0189751, "lon": 12.2397574, "tags": {"description": "Riksr\u00f8ys 109", "ele": "495.2", "historic": "boundary_stone", "man_made": "cairn", "name:sv": "B\u00e5dsj\u00f6r\u00f6set", "old_name": "Bagoos R\u00f8set", "ref": "Rr109", "source": "Kartverket/Riksgrenseprotokollene", "start_date": "1755"}}, {"type": "node", "id": 40163384, "lat": 63.3696576, "lon": 12.0983976, "tags": {"description": "Riksr\u00f8ys 161A", "ele": "749.8", "height": "1.7", "historic": "boundary_stone", "man_made": "cairn", "ref": "Rr161A", "source": "Kartverket/Riksgrenseprotokollene", "start_date": "1929", "width": "1.8"}}, {"type": "node", "id": 40163391, "lat": 64.462483, "lon": 14.1138841, "tags": {"description": "Riksr\u00f8ys 190", "historic": "boundary_stone", "man_made": "cairn", "name:no": "Murur\u00f8ysa", "ref": "Rr190", "source": "Kartverket/Riksgrenseprotokollene", "start_date": "1760"}}, {"type": "node", "id": 40163403, "lat": 59.8723095, "lon": 11.9149111}, {"type": "node", "id": 40163422, "lat": 59.713038, "lon": 11.9360143}, {"type": "node", "id": 40163431, "lat": 64.8102637, "lon": 13.9164482, "tags": {"description": "Riksr\u00f8ys 198A", "historic": "boundary_stone", "man_made": "cairn", "name:no": "Praahkoeviellier\u00f8ysa", "ref": "Rr198A", "source": "Kartverket/Riksgrenseprotokollene", "start_date": "1930"}}, {"type": "node", "id": 40163442, "lat": 64.0157114, "lon": 13.9159294, "tags": {"description": "Riksr\u00f8ys 183A", "ele": "674.0", "height": "1.4(1.5)", "historic": "boundary_stone", "man_made": "cairn", "ref": "Rr183A", "source": "Kartverket/Riksgrenseprotokollene", "start_date": "1960", "width": "2.0"}}, {"type": "node", "id": 40163596, "lat": 65.0958705, "lon": 14.2934612, "tags": {"description": "Riksr\u00f8ys 203B", "ele": "1073.3", "height": "1.15(1.4)", "historic": "boundary_stone", "man_made": "cairn", "ref": "Rr203B", "source": "Kartverket/Riksgrenseprotokollene", "start_date": "1930", "width": "1.95(1.8)"}}, {"type": "node", "id": 40163664, "lat": 58.9170793, "lon": 11.6553973}, {"type": "node", "id": 40163750, "lat": 58.8773398, "lon": 11.525504}, {"type": "node", "id": 40163919, "lat": 61.3683502, "lon": 12.8546294}, {"type": "node", "id": 40163951, "lat": 59.6373238, "lon": 11.7613171, "tags": {"description": "Riksr\u00f8ys 42", "ele": "160.0", "historic": "boundary_stone", "man_made": "cairn", "name:no": "Oksen r\u00f8ys", "name:sv": "Oxen", "ref": "Rr42", "source": "Kartverket/Riksgrenseprotokollene", "start_date": "1753"}}, {"type": "node", "id": 40163964, "lat": 63.3555796, "lon": 12.08409, "tags": {"description": "Riksr\u00f8ys 161. Riksmerke 214", "ele": "728.8", "height": "1.7", "historic": "boundary_stone", "man_made": "cairn", "name:no": "Skurdalsr\u00f8ysa", "name:sv": "Skurdalsr\u00f6set", "old_name": "Skurdals R\u00f8set", "ref": "Rr161", "source": "Kartverket/Riksgrenseprotokollene", "start_date": "1758", "width": "3.0"}}, {"type": "node", "id": 40163989, "lat": 66.3923904, "lon": 15.4302543, "tags": {"description": "Riksr\u00f8ys 226. Riksmerke 279", "ele": "1182.0", "height": "1.4", "historic": "boundary_stone", "man_made": "cairn", "name:no": "Trombergr\u00f8ysa", "name:sv": "K\u00e5bdespackte-r\u00f6set", "old_name": "Gobdis Backt R\u00f8set;Tromberget r\u00f8s;Gobdesbakte r\u00f8s", "ref": "Rr226", "source": "Kartverket/Riksgrenseprotokollene", "start_date": "1761", "width": "2.7"}}, {"type": "node", "id": 40164045, "lat": 66.4691371, "lon": 15.3860074, "tags": {"description": "Riksr\u00f8ys 226B", "ele": "1027.9", "height": "1.7", "historic": "boundary_stone", "man_made": "cairn", "ref": "Rr226B", "source": "Kartverket/Riksgrenseprotokollene", "start_date": "1930", "width": "1.9"}}, {"type": "node", "id": 40164176, "lat": 64.0733805, "lon": 13.4494685, "tags": {"description": "Riksr\u00f8ys 180A", "ele": "1074.1", "historic": "boundary_stone", "man_made": "cairn", "name:no": "Plassagaisar\u00f8ysa", "name:sv": "Plassegaiser\u00f6set", "ref": "Rr180A", "source": "Kartverket/Riksgrenseprotokollene", "start_date": "1929"}}, {"type": "node", "id": 40164191, "lat": 60.0403619, "lon": 12.4496776}, {"type": "node", "id": 40164201, "lat": 64.0655122, "lon": 13.5377205, "tags": {"description": "Riksr\u00f8ys 181. Riksmerke 234", "ele": "872.1", "height": "1.3", "historic": "boundary_stone", "man_made": "cairn", "name:no": "Skarr\u00f8ysa", "name:sv": "Skalr\u00f6set", "old_name": "Skars R\u00f8set", "ref": "Rr181", "source": "Kartverket/Riksgrenseprotokollene", "start_date": "1759", "width": "1.8"}}, {"type": "node", "id": 40164224, "lat": 64.5226146, "lon": 13.8408254, "tags": {"description": "Riksr\u00f8ys 193A", "ele": "507.0", "historic": "boundary_stone", "man_made": "cairn", "name:no": "Stikkmyrr\u00f8ysa", "ref": "Rr193A", "source": "Kartverket/Riksgrenseprotokollene", "start_date": "1961"}}, {"type": "node", "id": 40164331, "lat": 63.7265189, "lon": 12.3470992, "tags": {"description": "Riksr\u00f8ys 168A", "ele": "546.2", "height": "1.1-1.6", "historic": "boundary_stone", "man_made": "cairn", "ref": "Rr168A", "source": "Kartverket/Riksgrenseprotokollene", "start_date": "1960", "width": "1.5"}}, {"type": "node", "id": 40164391, "lat": 61.0492862, "lon": 12.5407102, "tags": {"description": "Riksr\u00f8ys 115", "ele": "575.5", "historic": "boundary_stone", "man_made": "cairn", "name:no": "Storbergsbakker\u00f8ysa", "ref": "Rr115", "source": "Kartverket/Riksgrenseprotokollene", "start_date": "1756"}}, {"type": "node", "id": 40164409, "lat": 61.0199615, "lon": 12.2424554}, {"type": "node", "id": 40164445, "lat": 64.1624976, "lon": 14.1246934, "tags": {"description": "Riksr\u00f8ys 186C", "ele": "651.1", "historic": "boundary_stone", "man_made": "cairn", "ref": "Rr186C", "source": "Kartverket/Riksgrenseprotokollene", "start_date": "1961"}}, {"type": "node", "id": 40164490, "lat": 59.8319799, "lon": 11.8515154}, {"type": "node", "id": 40164644, "lat": 59.0792568, "lon": 11.1535062}, {"type": "node", "id": 40164706, "lat": 64.0198484, "lon": 13.8885617, "tags": {"description": "Riksr\u00f8ys 183", "ele": "775.5", "historic": "boundary_stone", "man_made": "cairn", "name:no": "Kvithattr\u00f8ysa", "ref": "Rr183", "source": "Kartverket/Riksgrenseprotokollene", "start_date": "1759"}}, {"type": "node", "id": 40164727, "lat": 59.8595479, "lon": 11.8880538}, {"type": "node", "id": 40164799, "lat": 63.5169144, "lon": 12.1918161, "tags": {"description": "Riksr\u00f8ys 163A", "ele": "777.2", "height": "1.15-1.45", "historic": "boundary_stone", "man_made": "cairn", "ref": "Rr163A", "source": "Kartverket/Riksgrenseprotokollene", "start_date": "1929", "width": "1.9"}}, {"type": "node", "id": 40164829, "lat": 64.3981834, "lon": 14.1248688, "tags": {"description": "Riksr\u00f8ys 189A", "ele": "857.5", "historic": "boundary_stone", "man_made": "cairn", "name:no": "R\u00f8rvassfjellr\u00f8ysa", "ref": "Rr189A", "source": "Kartverket/Riksgrenseprotokollene", "start_date": "1929"}}, {"type": "node", "id": 40164916, "lat": 59.6724913, "lon": 11.875244, "tags": {"description": "Riksr\u00f8ys 49", "historic": "boundary_stone", "man_made": "cairn", "name:no": "Porstjenn r\u00f8ys", "ref": "Rr49", "source": "Kartverket/Riksgrenseprotokollene", "start_date": "1753"}}, {"type": "node", "id": 40164939, "lat": 59.0396952, "lon": 11.4141986}, {"type": "node", "id": 40165046, "lat": 66.5239699, "lon": 15.4510584, "tags": {"description": "Riksr\u00f8ys 228. Riksmerke 281", "ele": "863.5", "height": "1.6", "historic": "boundary_stone", "man_made": "cairn", "name:no": "Svangstjernsr\u00f8ysa", "name:sv": "Svangstj\u00e4rnsr\u00f6set", "old_name": "Svangs ki\u00e6rns R\u00f8set;Svangstjerns r\u00f8s", "ref": "Rr228", "source": "Kartverket/Riksgrenseprotokollene", "start_date": "1762", "width": "2.9"}}, {"type": "node", "id": 40165112, "lat": 60.8440148, "lon": 12.3381088}, {"type": "node", "id": 40165156, "lat": 61.0465392, "lon": 12.6103379, "tags": {"description": "Riksr\u00f8ys 118", "historic": "boundary_stone", "man_made": "cairn", "name:no": "Sandkilder\u00f8ysa", "ref": "Rr118", "source": "Kartverket/Riksgrenseprotokollene", "start_date": "1756"}}, {"type": "node", "id": 40165218, "lat": 59.8898284, "lon": 11.9415514}, {"type": "node", "id": 40165248, "lat": 59.0960993, "lon": 11.2582898}, {"type": "node", "id": 40165537, "lat": 64.1079599, "lon": 14.0706309, "tags": {"description": "Riksr\u00f8ys 186", "historic": "boundary_stone", "man_made": "cairn", "name:no": "Holmskogr\u00f8ysa", "ref": "Rr186", "source": "Kartverket/Riksgrenseprotokollene", "start_date": "1759"}}, {"type": "node", "id": 40165554, "lat": 59.824314, "lon": 11.8855059}, {"type": "node", "id": 40165593, "lat": 61.0216832, "lon": 12.2549283, "tags": {"description": "Riksr\u00f8ys 110A", "ele": "509.7", "historic": "boundary_stone", "man_made": "cairn", "ref": "Rr110A", "source": "Kartverket/Riksgrenseprotokollene", "start_date": "1929"}}, {"type": "node", "id": 40165616, "lat": 59.7418426, "lon": 11.9292191}, {"type": "node", "id": 40165630, "lat": 59.7764007, "lon": 11.9300289}, {"type": "node", "id": 40165689, "lat": 66.6672661, "lon": 15.7168157, "tags": {"description": "Riksr\u00f8ys 231", "ele": "960.0", "historic": "boundary_stone", "man_made": "cairn", "old_name": "Tioke gais R\u00f8set", "ref": "Rr231", "source": "Kartverket/Riksgrenseprotokollene", "start_date": "1762"}}, {"type": "node", "id": 40165746, "lat": 59.0858481, "lon": 11.2097638}, {"type": "node", "id": 40165833, "lat": 64.0262887, "lon": 12.8342621, "tags": {"description": "Riksr\u00f8ys 176. Riksmerke 229", "ele": "779.0", "height": "1.5(1.3)", "historic": "boundary_stone", "man_made": "cairn", "name:no": "Gaundalsr\u00f8ysa", "name:sv": "Gaundalsr\u00f6set", "old_name": "Goundals R\u00f8set", "ref": "Rr176", "source": "Kartverket/Riksgrenseprotokollene", "start_date": "1759", "width": "2.2"}}, {"type": "node", "id": 40165860, "lat": 60.8805122, "lon": 12.3332189, "tags": {"description": "Riksr\u00f8ys 102A", "ele": "343.3", "historic": "boundary_stone", "man_made": "cairn", "name:no": "Halsj\u00f8r\u00f8ysa", "ref": "Rr102A", "source": "Kartverket/Riksgrenseprotokollene", "start_date": "1929"}}, {"type": "node", "id": 40166027, "lat": 64.2842817, "lon": 14.1447062, "tags": {"description": "Riksr\u00f8ys 188", "ele": "909.6", "historic": "boundary_stone", "man_made": "cairn", "name:no": "Oivisr\u00f8ysa", "ref": "Rr188", "source": "Kartverket/Riksgrenseprotokollene", "start_date": "1760"}}, {"type": "node", "id": 40166344, "lat": 64.0079704, "lon": 13.9675267, "tags": {"description": "Riksr\u00f8ys 184", "ele": "377.0", "historic": "boundary_stone", "man_made": "cairn", "name:no": "S\u00f8re Kingsr\u00f8ysa", "ref": "Rr184", "source": "Kartverket/Riksgrenseprotokollene", "start_date": "1759"}}, {"type": "node", "id": 40166430, "lat": 63.2146064, "lon": 12.0241266, "tags": {"description": "Riksr\u00f8ys 158. Riksmerke 211", "ele": "848.1", "height": "1.5", "historic": "boundary_stone", "man_made": "cairn", "name:no": "Bekkr\u00f8ysa", "name:sv": "B\u00e4ckr\u00f6set", "old_name": "Bek R\u00f8set", "ref": "Rr158", "source": "Kartverket/Riksgrenseprotokollene", "start_date": "1758", "width": "2.0"}}, {"type": "node", "id": 40166456, "lat": 64.681714, "lon": 13.7573581, "tags": {"description": "Riksr\u00f8ys 196A", "ele": "461.4", "historic": "boundary_stone", "man_made": "cairn", "name:no": "Limingdalsr\u00f8ysa", "ref": "Rr196A", "source": "Kartverket/Riksgrenseprotokollene", "start_date": "1961"}}, {"type": "node", "id": 40166476, "lat": 59.7397281, "lon": 11.9329544}, {"type": "node", "id": 40166488, "lat": 59.6238747, "lon": 11.7184519}, {"type": "node", "id": 40166628, "lat": 59.9583265, "lon": 12.3198702, "tags": {"description": "Riksr\u00f8ys 68A", "historic": "boundary_stone", "man_made": "cairn", "name:no": "Moltemyrr\u00f8ysa", "ref": "Rr68A", "source": "Kartverket/Riksgrenseprotokollene", "start_date": "1929"}}, {"type": "node", "id": 40166661, "lat": 59.6625432, "lon": 11.8703005, "tags": {"description": "Riksr\u00f8ys 48", "historic": "boundary_stone", "man_made": "cairn", "old_name": "Furumor\u00f8ysa", "ref": "Rr48", "source": "Kartverket/Riksgrenseprotokollene", "start_date": "1753"}}, {"type": "node", "id": 40166760, "lat": 59.8532265, "lon": 11.8778128}, {"type": "node", "id": 40166777, "lat": 59.8422698, "lon": 11.8435746}, {"type": "node", "id": 40166829, "lat": 59.0929029, "lon": 11.2461265}, {"type": "node", "id": 40166865, "lat": 64.1494779, "lon": 14.1117608, "tags": {"description": "Riksr\u00f8ys 186B", "ele": "660.8", "historic": "boundary_stone", "man_made": "cairn", "name:no": "\u00d8vre Lindbergr\u00f8ysa", "ref": "Rr186B", "source": "Kartverket/Riksgrenseprotokollene", "start_date": "1929"}}, {"type": "node", "id": 40166929, "lat": 59.9004816, "lon": 11.9842133, "tags": {"alt_name:sv": "R\u00f6ddehalsr\u00f6set", "description": "Riksr\u00f8ys 56", "historic": "boundary_stone", "man_made": "cairn", "name": "R\u00f8dehallsr\u00f8ysa", "name:no": "R\u00f8dehallsr\u00f8ysa", "name:sv": "R\u00f6dehallsr\u00f6set", "old_name:no": "R\u00f8dehalds R\u00f8set", "ref": "Rr56", "source": "Kartverket/Riksgrenseprotokollene", "ssr:stedsnr": "474256", "start_date": "1754"}}, {"type": "node", "id": 40166983, "lat": 59.8301572, "lon": 11.8537223}, {"type": "node", "id": 40167050, "lat": 61.020622, "lon": 12.2472856, "tags": {"description": "Riksr\u00f8ys 110", "ele": "499.7", "historic": "boundary_stone", "man_made": "cairn", "name:no": "Badsj\u00f8r\u00f8ysa", "name:sv": "B\u00e5dsj\u00f6r\u00f6set", "ref": "Rr110", "source": "Kartverket/Riksgrenseprotokollene", "start_date": "1756"}}, {"type": "node", "id": 40167101, "lat": 59.9275145, "lon": 12.2310052, "tags": {"description": "Riksr\u00f8ys 66. Riksmerke 112", "ele": "126.1", "height": "1.5(1.7)", "historic": "boundary_stone", "man_made": "cairn", "name:no": "Vrangselvr\u00f8ysa", "name:sv": "Vrangelsr\u00f6set", "old_name": "Wrangs Elvs R\u00f8set", "ref": "Rr66", "source": "Kartverket/Riksgrenseprotokollene", "start_date": "1754", "width": "2.0(2.4)"}}, {"type": "node", "id": 40167127, "lat": 64.5071331, "lon": 13.891177, "tags": {"description": "Riksr\u00f8ys 193", "historic": "boundary_stone", "man_made": "cairn", "name:no": "Kvesj\u00f8r\u00f8ysa", "ref": "Rr193", "source": "Kartverket/Riksgrenseprotokollene", "start_date": "1760"}}, {"type": "node", "id": 40167170, "lat": 59.8446983, "lon": 11.8541651}, {"type": "node", "id": 40167231, "lat": 63.7150691, "lon": 12.3305755, "tags": {"description": "Riksr\u00f8ys 168. Riksmerke 221", "ele": "494.6", "height": "1.5", "historic": "boundary_stone", "man_made": "cairn", "name:no": "Skjorvannsr\u00f8ysa", "name:sv": "Skervattensr\u00f6set", "old_name": "Ski\u00e6rvands R\u00f8set", "ref": "Rr168", "source": "Kartverket/Riksgrenseprotokollene", "start_date": "1759", "width": "2.6"}}, {"type": "node", "id": 40167319, "lat": 59.8906569, "lon": 12.0997715, "tags": {"description": "Riksr\u00f8ys 61", "historic": "boundary_stone", "man_made": "cairn", "name": "Korpungstjernr\u00f8ysa", "name:no": "Korpungstjernr\u00f8ysa", "name:sv": "Korpungstj\u00e4rnsr\u00f6set", "old_name": "Ki\u00f8rpungskierns R\u00f8set", "ref": "Rr61", "source": "Kartverket/Riksgrenseprotokollene", "ssr:stedsnr": "474282", "start_date": "1754"}}, {"type": "node", "id": 40167323, "lat": 59.0150594, "lon": 11.1171483}, {"type": "node", "id": 40167339, "lat": 62.2674591, "lon": 12.2993494, "tags": {"description": "Riksr\u00f8ys 144", "ele": "1003.8", "historic": "boundary_stone", "man_made": "cairn", "name:no": "Vonsj\u00f8gustr\u00f8ysa", "old_name": "Wansi\u00f8gust R\u00f8set", "ref": "Rr144", "source": "Kartverket/Riksgrenseprotokollene", "start_date": "1757"}}, {"type": "node", "id": 40167464, "lat": 66.3690397, "lon": 15.4420452, "tags": {"description": "Riksr\u00f8ys 225A", "ele": "1135.8", "height": "0.9(1.0)", "historic": "boundary_stone", "man_made": "cairn", "name:no": "Verestj\u00e5kkor\u00f8ysa", "ref": "Rr225A", "source": "Kartverket/Riksgrenseprotokollene", "start_date": "1930", "width": "2.1(1.8)"}}, {"type": "node", "id": 40167527, "lat": 64.4828181, "lon": 14.0551476, "tags": {"description": "Riksr\u00f8ys 191A", "ele": "416.2", "historic": "boundary_stone", "man_made": "cairn", "name:no": "Pilttangr\u00f8ysa", "ref": "Rr191A", "source": "Kartverket/Riksgrenseprotokollene", "start_date": "1930"}}, {"type": "node", "id": 40167712, "lat": 64.4990728, "lon": 13.9458381, "tags": {"description": "Riksr\u00f8ys 192", "historic": "boundary_stone", "man_made": "cairn", "name:no": "Pluttr\u00f8ysa", "ref": "Rr192", "source": "Kartverket/Riksgrenseprotokollene", "start_date": "1760"}}, {"type": "node", "id": 40167913, "lat": 59.7965971, "lon": 11.9204758}, {"type": "node", "id": 40168006, "lat": 61.5687468, "lon": 12.5693257, "tags": {"description": "Riksr\u00f8ys 130. Riksmerke 182", "ele": "1034.5", "height": "1.5", "historic": "boundary_stone", "man_made": "cairn", "name:no": "Brattfjellsr\u00f8ysa", "name:sv": "Brattfj\u00e4llsr\u00f6set", "old_name": "Bratfjeld R\u00f8set", "ref": "Rr130", "source": "Kartverket/Riksgrenseprotokollene", "start_date": "1757", "width": "2.5"}}, {"type": "node", "id": 40168158, "lat": 59.8209563, "lon": 11.8899644}, {"type": "node", "id": 40168240, "lat": 60.8523634, "lon": 12.3344856, "tags": {"description": "Riksr\u00f8ys 102", "ele": "461.2", "historic": "boundary_stone", "man_made": "cairn", "name:no": "Skarpgjuvbergsr\u00f8ysa", "ref": "Rr102", "source": "Kartverket/Riksgrenseprotokollene", "start_date": "1755"}}, {"type": "node", "id": 40168393, "lat": 64.0462808, "lon": 13.7153837, "tags": {"description": "Riksr\u00f8ys 182", "ele": "1063.0", "historic": "boundary_stone", "man_made": "cairn", "name:no": "Juthattr\u00f8ysa", "ref": "Rr182", "source": "Kartverket/Riksgrenseprotokollene", "start_date": "1759"}}, {"type": "node", "id": 40168481, "lat": 64.4350431, "lon": 14.1185772, "tags": {"description": "Riksr\u00f8ys 189B", "ele": "714.3", "height": "1.45(1.55)", "historic": "boundary_stone", "man_made": "cairn", "name:no": "Mururumpr\u00f8ysa?", "ref": "Rr189B", "source": "Kartverket/Riksgrenseprotokollene", "start_date": "1929", "width": "2.0"}}, {"type": "node", "id": 40168564, "lat": 64.4782494, "lon": 14.0852332, "tags": {"description": "Riksr\u00f8ys 191", "historic": "boundary_stone", "man_made": "cairn", "name:no": "Murusj\u00f8r\u00f8ysa", "ref": "Rr191", "source": "Kartverket/Riksgrenseprotokollene", "start_date": "1760"}}, {"type": "node", "id": 40168635, "lat": 59.8992643, "lon": 11.9863753}, {"type": "node", "id": 40168674, "lat": 60.9786242, "lon": 12.254112, "tags": {"description": "Riksr\u00f8ys 107. Riksmerke 157", "height": "1.2-1.5", "historic": "boundary_stone", "man_made": "cairn", "name:no": "Veggr\u00f8ysa", "name:sv": "Veggr\u00f6set", "old_name": "Wegger R\u00f8set", "ref": "Rr107", "source": "Kartverket/Riksgrenseprotokollene", "start_date": "1755", "width": "2.1"}}, {"type": "node", "id": 40168759, "lat": 59.8899989, "lon": 11.9417258}, {"type": "node", "id": 40168819, "lat": 63.1893065, "lon": 12.0471431, "tags": {"description": "Riksr\u00f8ys 157A", "ele": "771.4", "height": "1.3", "historic": "boundary_stone", "man_made": "cairn", "ref": "Rr157A", "source": "Kartverket/Riksgrenseprotokollene", "start_date": "1960", "width": "2.0"}}, {"type": "node", "id": 40168825, "lat": 63.3162488, "lon": 12.0338545, "tags": {"alt_name:no": "Tvedalsr\u00f8ysa", "description": "Riksr\u00f8ys 160. Riksmerke 213", "ele": "737.4", "height": "1.5", "historic": "boundary_stone", "man_made": "cairn", "name:no": "Teveldalsr\u00f8ysa", "name:sv": "Teveldalsr\u00f6set", "old_name": "Teveldals R\u00f8set", "ref": "Rr160", "source": "Kartverket/Riksgrenseprotokollene", "start_date": "1758", "width": "2.0"}}, {"type": "node", "id": 40168851, "lat": 59.6828359, "lon": 11.8780441, "tags": {"description": "Riksr\u00f8ys 50", "historic": "boundary_stone", "man_made": "cairn", "name:no": "Tverrbekkr\u00f8ysa", "ref": "Rr50", "source": "Kartverket/Riksgrenseprotokollene", "start_date": "1753"}}, {"type": "node", "id": 40168940, "lat": 59.8939448, "lon": 12.1261044, "tags": {"description": "Riksr\u00f8ys 62", "historic": "boundary_stone", "man_made": "cairn", "name:no": "Linnatjernr\u00f8ysa", "name:sv": "\u00c5retj\u00e4rnsr\u00f6set", "ref": "Rr62", "source": "Kartverket/Riksgrenseprotokollene", "start_date": "1754"}}, {"type": "node", "id": 40168981, "lat": 63.5339223, "lon": 12.1824381, "tags": {"description": "Riksr\u00f8ys 164. Riksmerke 217", "ele": "704.6", "height": "1.5", "historic": "boundary_stone", "man_made": "cairn", "name:no": "Rendalsr\u00f8ysa", "name:sv": "Rendalsr\u00f6set", "old_name": "Kendals R\u00f8set?", "ref": "Rr164", "source": "Kartverket/Riksgrenseprotokollene", "start_date": "1758", "width": "2.0"}}, {"type": "node", "id": 40169005, "lat": 64.8221244, "lon": 13.9312665, "tags": {"description": "Riksr\u00f8ys 199", "ele": "865.0", "historic": "boundary_stone", "man_made": "cairn", "name:no": "Brakkfjellsr\u00f8ysa", "ref": "Rr199", "source": "Kartverket/Riksgrenseprotokollene", "start_date": "1760"}}, {"type": "node", "id": 40169012, "lat": 59.6482907, "lon": 11.8556139}, {"type": "node", "id": 40169100, "lat": 59.1062126, "lon": 11.3025026}, {"type": "node", "id": 40169174, "lat": 63.1834479, "lon": 12.0524593}, {"type": "node", "id": 40169207, "lat": 61.5629808, "lon": 12.4196098, "tags": {"description": "Riksr\u00f8ys 132", "ele": "994.4", "historic": "boundary_stone", "man_made": "cairn", "name:no": "Myrtuver\u00f8ysa", "old_name": "M\u00f8rtetuv R\u00f8set;Myrtuv R\u00f8set", "ref": "Rr132", "source": "Kartverket/Riksgrenseprotokollene", "start_date": "1757"}}, {"type": "node", "id": 40169227, "lat": 61.0521684, "lon": 12.6516844, "tags": {"description": "Riksr\u00f8ys 119", "ele": "370.3", "historic": "boundary_stone", "man_made": "cairn", "name:no": "Vestre Kildegravsr\u00f8ysa", "name:sv": "V\u00e4stra K\u00e4llgravsr\u00f6set", "ref": "Rr119", "source": "Kartverket/Riksgrenseprotokollene", "start_date": "1756"}}, {"type": "node", "id": 40169275, "lat": 66.5943354, "lon": 15.6213686, "tags": {"alt_name:se": "Straitescokkar\u00f6set", "description": "Riksr\u00f8ys 230. Riksmerke 283", "ele": "1569.8", "height": "1.9", "historic": "boundary_stone", "man_made": "cairn", "name:no": "Straitasc\u00e5kkar\u00f8ysa", "name:sv": "Streitestj\u00e5kkor\u00f6set", "old_name": "Streitis Kiak R\u00f8set;Straitescok r\u00f8s", "ref": "Rr230", "source": "Kartverket/Riksgrenseprotokollene", "start_date": "1762", "width": "2.5"}}, {"type": "node", "id": 40169379, "lat": 63.4107202, "lon": 12.1401136, "tags": {"description": "Riksr\u00f8ys 162", "ele": "847.5", "historic": "boundary_stone", "man_made": "cairn", "old_name": "Rennsaa R\u00f8set", "ref": "Rr162", "source": "Kartverket/Riksgrenseprotokollene", "start_date": "1758"}}, {"type": "node", "id": 40169417, "lat": 64.8594447, "lon": 13.9775383, "tags": {"description": "Riksr\u00f8ys 199A", "ele": "689.6", "historic": "boundary_stone", "man_made": "cairn", "name:no": "Middagsklumpr\u00f8ysa", "ref": "Rr199A", "source": "Kartverket/Riksgrenseprotokollene", "start_date": "1961"}}, {"type": "node", "id": 40169448, "lat": 63.3369497, "lon": 12.0603015, "tags": {"description": "Riksr\u00f8ys 160A", "ele": "559.1", "historic": "boundary_stone", "man_made": "cairn", "ref": "Rr160A", "source": "Kartverket/Riksgrenseprotokollene", "start_date": "1929"}}, {"type": "node", "id": 40169471, "lat": 59.8298196, "lon": 11.8630341}, {"type": "node", "id": 40169481, "lat": 66.5578578, "lon": 15.5333652, "tags": {"description": "Riksr\u00f8ys 229. Riksmerke 282", "ele": "1206.4", "height": "1.2", "historic": "boundary_stone", "man_made": "cairn", "name:no": "Svangsfjellsr\u00f8ysa", "name:sv": "Svangsfj\u00e4llsr\u00f6set", "old_name": "Svangs fields R\u00f8set;Svangsfjelds r\u00f8s", "ref": "Rr229", "source": "Kartverket/Riksgrenseprotokollene", "start_date": "1762", "width": "2.3(2.6)"}}, {"type": "node", "id": 40169635, "lat": 59.8858208, "lon": 11.9298064}, {"type": "node", "id": 40169849, "lat": 59.8995085, "lon": 11.9860461}, {"type": "node", "id": 40170052, "lat": 66.5512936, "lon": 15.5174314, "tags": {"description": "Riksr\u00f8ys 228A", "ele": "1061.7", "historic": "boundary_stone", "man_made": "cairn", "ref": "Rr228A", "source": "Kartverket/Riksgrenseprotokollene", "start_date": "1930"}}, {"type": "node", "id": 40170058, "lat": 59.8870501, "lon": 11.9350786}, {"type": "node", "id": 40170096, "lat": 64.7757019, "lon": 13.873374, "tags": {"description": "Riksr\u00f8ys 198", "historic": "boundary_stone", "man_made": "cairn", "name:no": "Jormlifjellsr\u00f8ysa", "old_name": "Jermatjak R\u00f8set", "ref": "Rr198", "source": "Kartverket/Riksgrenseprotokollene", "start_date": "1760"}}, {"type": "node", "id": 40170123, "lat": 63.2431079, "lon": 11.9982945, "tags": {"description": "Riksr\u00f8ys 158A", "ele": "872.4", "historic": "boundary_stone", "man_made": "cairn", "ref": "Rr158A", "source": "Kartverket/Riksgrenseprotokollene", "start_date": "1960"}}, {"type": "node", "id": 40170131, "lat": 64.1950934, "lon": 14.1571021, "tags": {"description": "Riksr\u00f8ys 187", "ele": "1036.9", "historic": "boundary_stone", "man_made": "cairn", "name:no": "Penningkeisr\u00f8ysa", "ref": "Rr187", "source": "Kartverket/Riksgrenseprotokollene", "start_date": "1760"}}, {"type": "node", "id": 40170272, "lat": 59.4793693, "lon": 11.7532071, "tags": {"description": "Riksr\u00f8ys 31", "ele": "236.4", "historic": "boundary_stone", "man_made": "cairn", "name:no": "Runnetjernsr\u00f8ysa", "name:sv": "Runnetj\u00e4rnsr\u00f6set", "ref": "Rr31", "source": "Kartverket/Riksgrenseprotokollene", "start_date": "1753"}}, {"type": "node", "id": 40170337, "lat": 64.0003425, "lon": 12.759048, "tags": {"description": "Riksr\u00f8ys 175A", "ele": "730.6", "historic": "boundary_stone", "man_made": "cairn", "name:no": "Lingklumpr\u00f8ysa", "ref": "Rr175A", "source": "Kartverket/Riksgrenseprotokollene", "start_date": "1929"}}, {"type": "node", "id": 40170413, "lat": 63.6719726, "lon": 12.2994627, "tags": {"description": "Riksr\u00f8ys 167", "ele": "693.0", "historic": "boundary_stone", "man_made": "cairn", "name:no": "Finnvolr\u00f8ysa", "ref": "Rr167", "source": "Kartverket/Riksgrenseprotokollene", "start_date": "1758"}}, {"type": "node", "id": 40170460, "lat": 59.077148, "lon": 11.3893333}, {"type": "node", "id": 40170528, "lat": 59.8859445, "lon": 12.0534662, "tags": {"description": "Riksr\u00f8ys 60", "historic": "boundary_stone", "man_made": "cairn", "name:no": "Blekerenr\u00f8ysa", "ref": "Rr60", "source": "Kartverket/Riksgrenseprotokollene", "start_date": "1754"}}, {"type": "node", "id": 40170560, "lat": 64.8898015, "lon": 14.0152303, "tags": {"description": "Riksr\u00f8ys 200. Riksmerke 253", "ele": "710.4", "height": "1.6(1.57)", "historic": "boundary_stone", "man_made": "cairn", "name:no": "Jodar\u00f8ysa", "name:sv": "Jodar\u00f6set", "old_name": "Joda R\u00f8set", "ref": "Rr200", "source": "Kartverket/Riksgrenseprotokollene", "start_date": "1760", "width": "1.75(1.74)"}}, {"type": "node", "id": 40170573, "lat": 58.9062334, "lon": 11.652003, "tags": {"description": "Riksr\u00f8ys 1", "ele": "172.0", "historic": "boundary_stone", "man_made": "cairn", "name:no": "Riksr\u00f8ys 1", "name:sv": "His\u00f6r\u00f6set", "ref": "Rr1", "source": "Kartverket/Riksgrenseprotokollene", "start_date": "1752"}}, {"type": "node", "id": 40170702, "lat": 60.838354, "lon": 12.3405644, "tags": {"description": "Riksr\u00f8ys 101A", "ele": "439.6", "historic": "boundary_stone", "man_made": "cairn", "ref": "Rr101A", "source": "Kartverket/Riksgrenseprotokollene", "start_date": "1959"}}, {"type": "node", "id": 40170730, "lat": 59.7290028, "lon": 11.9369176}, {"type": "node", "id": 40170935, "lat": 60.9990895, "lon": 12.2362195, "tags": {"description": "Riksr\u00f8ys 107A", "ele": "555.0", "historic": "boundary_stone", "man_made": "cairn", "ref": "Rr107A", "source": "Kartverket/Riksgrenseprotokollene", "start_date": "1959"}}, {"type": "node", "id": 40171041, "lat": 59.7004707, "lon": 11.9370468}, {"type": "node", "id": 40171076, "lat": 60.9438296, "lon": 12.284567, "tags": {"description": "Riksr\u00f8ys 106", "ele": "420.1", "historic": "boundary_stone", "man_made": "cairn", "name:no": "Mullhaugsr\u00f8ysa", "name:sv": "Mullh\u00f6gar\u00f6set", "ref": "Rr106", "source": "Kartverket/Riksgrenseprotokollene", "start_date": "1755"}}, {"type": "node", "id": 40171095, "lat": 65.048682, "lon": 14.2269892, "tags": {"description": "Riksr\u00f8ys 203", "historic": "boundary_stone", "man_made": "cairn", "name:no": "Sipmekr\u00f8ysa", "ref": "Rr203", "source": "Kartverket/Riksgrenseprotokollene", "start_date": "1760"}}, {"type": "node", "id": 40171234, "lat": 64.0294066, "lon": 13.9902075, "tags": {"description": "Riksr\u00f8ys 184A", "ele": "378.3", "historic": "boundary_stone", "man_made": "cairn", "name:no": "Nedre Kingsr\u00f8ysa", "ref": "Rr184A", "source": "Kartverket/Riksgrenseprotokollene", "start_date": "1960"}}, {"type": "node", "id": 40171245, "lat": 59.731055, "lon": 11.9335337}, {"type": "node", "id": 40171270, "lat": 62.7948315, "lon": 12.1176942, "tags": {"description": "Riksr\u00f8ys 151A", "ele": "1070.3", "height": "1.35-1.85", "historic": "boundary_stone", "man_made": "cairn", "name:no": "Hyddkleppr\u00f8ysa", "name:sv": "Hyddkleppsr\u00f6set?", "ref": "Rr151A", "source": "Kartverket/Riksgrenseprotokollene", "start_date": "1929", "width": "1.8"}}, {"type": "node", "id": 40171276, "lat": 66.6814688, "lon": 15.7356562, "tags": {"description": "Riksr\u00f8ys 231A", "ele": "1318.7", "height": "1.1(1.0)", "historic": "boundary_stone", "man_made": "cairn", "ref": "Rr231A", "source": "Kartverket/Riksgrenseprotokollene", "start_date": "1930", "width": "1.8"}}, {"type": "node", "id": 40171280, "lat": 63.7648607, "lon": 12.4025859, "tags": {"description": "Riksr\u00f8ys 169a", "historic": "boundary_stone", "man_made": "cairn", "ref": "Rr169a", "source": "Kartverket/Riksgrenseprotokollene", "start_date": "1960"}}, {"type": "node", "id": 40171322, "lat": 59.0876122, "lon": 11.2248594}, {"type": "node", "id": 40171340, "lat": 59.8067919, "lon": 11.9057966}, {"type": "node", "id": 40171420, "lat": 63.6491263, "lon": 12.2592732, "tags": {"description": "Riksr\u00f8ys 166A", "ele": "435.3", "historic": "boundary_stone", "man_made": "cairn", "ref": "Rr166A", "source": "Kartverket/Riksgrenseprotokollene", "start_date": "1985"}}, {"type": "node", "id": 40171513, "lat": 58.9918054, "lon": 11.0923814}, {"type": "node", "id": 40171524, "lat": 59.7360919, "lon": 11.932256}, {"type": "node", "id": 40171776, "lat": 66.7058694, "lon": 15.7681048, "tags": {"description": "Riksr\u00f8ys 231B", "ele": "860.3", "height": "1.45(1.05)", "historic": "boundary_stone", "man_made": "cairn", "name:no": "Graddiselvr\u00f8ysa", "ref": "Rr231B", "source": "Kartverket/Riksgrenseprotokollene", "start_date": "1930", "width": "2.1(2.4)"}}, {"type": "node", "id": 40171798, "lat": 59.0135472, "lon": 11.4426067}, {"type": "node", "id": 40171845, "lat": 59.6945798, "lon": 11.9398779, "tags": {"fixme": "grennser\u00f8ys?", "old_name": "Tufwan i T\u00e5ken"}}, {"type": "node", "id": 40171853, "lat": 66.6988461, "lon": 15.7587442}, {"type": "node", "id": 40171907, "lat": 63.4403974, "lon": 12.1718782, "tags": {"description": "Riksr\u00f8ys 162A", "ele": "756.9", "height": "1.0-1.3", "historic": "boundary_stone", "man_made": "cairn", "ref": "Rr162A", "source": "Kartverket/Riksgrenseprotokollene", "start_date": "1929", "width": "1.5"}}, {"type": "node", "id": 40171954, "lat": 64.0953668, "lon": 13.2111097, "tags": {"description": "Riksr\u00f8ys 179", "ele": "938.3", "historic": "boundary_stone", "man_made": "cairn", "name:no": "Gjevsj\u00f8hattr\u00f8ysa", "ref": "Rr179", "source": "Kartverket/Riksgrenseprotokollene", "start_date": "1759"}}, {"type": "node", "id": 40171966, "lat": 63.6886117, "lon": 12.3114643, "tags": {"description": "Riksr\u00f8ys 167A", "historic": "boundary_stone", "man_made": "cairn", "ref": "Rr167A", "source": "Kartverket/Riksgrenseprotokollene", "start_date": "1929"}}, {"type": "node", "id": 40171971, "lat": 64.9513245, "lon": 14.0937037, "tags": {"description": "Riksr\u00f8ys 201A", "historic": "boundary_stone", "man_made": "cairn", "name:no": "Vaellier\u00f8ysa", "ref": "Rr201A", "source": "Kartverket/Riksgrenseprotokollene", "start_date": "1930"}}, {"type": "node", "id": 40171980, "lat": 60.0391769, "lon": 12.448559, "tags": {"description": "Riksr\u00f8ys 73", "historic": "boundary_stone", "man_made": "cairn", "name:no": "Lystjennsr\u00f8ysa", "ref": "Rr73", "source": "Kartverket/Riksgrenseprotokollene", "start_date": "1754"}}, {"type": "node", "id": 40172048, "lat": 64.0866726, "lon": 13.1451243, "tags": {"description": "Riksr\u00f8ys 178A", "ele": "556.8", "height": "1.4-1.75", "historic": "boundary_stone", "man_made": "cairn", "name:no": "Stygghaugr\u00f8ysa?", "ref": "Rr178A", "source": "Kartverket/Riksgrenseprotokollene", "start_date": "1960", "width": "2.0"}}, {"type": "node", "id": 40172084, "lat": 58.8794067, "lon": 11.5182236}, {"type": "node", "id": 40172198, "lat": 66.5138409, "lon": 15.4321929, "tags": {"description": "Riksr\u00f8ys 227A", "ele": "979.9", "height": "1.8", "historic": "boundary_stone", "man_made": "cairn", "name:no": "Stokkafjellsr\u00f8ysa", "name:sv": "Stokkafj\u00e4llsr\u00f6set", "ref": "Rr227A", "source": "Kartverket/Riksgrenseprotokollene", "start_date": "1930", "width": "1.8"}}, {"type": "node", "id": 40172259, "lat": 60.9085243, "lon": 12.3163317, "tags": {"description": "Riksr\u00f8ys 104A", "historic": "boundary_stone", "man_made": "cairn", "ref": "Rr104A", "source": "Kartverket/Riksgrenseprotokollene", "start_date": "1929"}}, {"type": "node", "id": 40172293, "lat": 59.8871076, "lon": 12.0455964, "tags": {"description": "Riksr\u00f8ys 59A", "historic": "boundary_stone", "man_made": "cairn", "name:no": "Gr\u00e5myrr\u00f8ysa", "ref": "Rr59A", "source": "Kartverket/Riksgrenseprotokollene", "start_date": "1929"}}, {"type": "node", "id": 40172377, "lat": 66.6181202, "lon": 15.652416, "tags": {"description": "Riksr\u00f8ys 230A", "ele": "1282.2", "height": "1.8", "historic": "boundary_stone", "man_made": "cairn", "name:no": "Gavakecokkar\u00f8ysa", "name:sv": "Gavakecokkar\u00f6set", "ref": "Rr230A", "source": "Kartverket/Riksgrenseprotokollene", "start_date": "1930", "width": "1.8"}}, {"type": "node", "id": 40172435, "lat": 58.9911521, "lon": 11.4645982}, {"type": "node", "id": 40172444, "lat": 59.8676461, "lon": 11.8813193}, {"type": "node", "id": 40172542, "lat": 62.8295467, "lon": 12.1038297, "tags": {"description": "Riksr\u00f8ys 152. Riksmerke 204", "ele": "1215.6", "height": "1.2", "historic": "boundary_stone", "man_made": "cairn", "name:no": "Knipr\u00f8ysa", "name:sv": "Knipr\u00f6set", "old_name": "Knip R\u00f8set", "ref": "Rr152", "source": "Kartverket/Riksgrenseprotokollene", "start_date": "1758", "width": "2.0"}}, {"type": "node", "id": 40172595, "lat": 59.8417894, "lon": 11.8404427}, {"type": "node", "id": 40172605, "lat": 59.7734178, "lon": 11.9313521}, {"type": "node", "id": 40172642, "lat": 63.4785905, "lon": 12.2128783, "tags": {"description": "Riksr\u00f8ys 163", "ele": "833.6", "historic": "boundary_stone", "man_made": "cairn", "old_name": "Halsi\u00f8rue R\u00f8set", "ref": "Rr163", "source": "Kartverket/Riksgrenseprotokollene", "start_date": "1758"}}, {"type": "node", "id": 40172747, "lat": 64.0579355, "lon": 12.9266853, "tags": {"description": "Riksr\u00f8ys 177. Riksmerke 230", "ele": "721.3", "height": "1.0?(1.58)", "historic": "boundary_stone", "man_made": "cairn", "name:no": "Holderskaftr\u00f8ysa", "name:sv": "Holdershattsr\u00f6set", "old_name": "Holdershatt R\u00f8set", "ref": "Rr177", "source": "Kartverket/Riksgrenseprotokollene", "start_date": "1759", "width": "2.2"}}, {"type": "node", "id": 40172784, "lat": 66.4300627, "lon": 15.4085938, "tags": {"description": "Riksr\u00f8ys 226A", "height": "1.0-1.2(1.0)", "historic": "boundary_stone", "man_made": "cairn", "name:no": "Gargadasoaivver\u00f8ysa", "ref": "Rr226A", "source": "Kartverket/Riksgrenseprotokollene", "start_date": "1930", "width": "2.75(2.3)"}}, {"type": "node", "id": 40172813, "lat": 59.8156284, "lon": 11.8950915}, {"type": "node", "id": 40172831, "lat": 59.7713642, "lon": 11.9305687}, {"type": "node", "id": 40172887, "lat": 59.9817051, "lon": 12.35868}, {"type": "node", "id": 40172905, "lat": 64.580341, "lon": 13.6542596, "tags": {"description": "Riksr\u00f8ys 195", "historic": "boundary_stone", "man_made": "cairn", "name:no": "Portfjellsr\u00f8ysa", "ref": "Rr195", "source": "Kartverket/Riksgrenseprotokollene", "start_date": "1760"}}, {"type": "node", "id": 40172916, "lat": 68.9434784, "lon": 20.893443}, {"type": "node", "id": 40172953, "lat": 60.8865738, "lon": 12.3329501, "tags": {"description": "Riksr\u00f8ys 103", "ele": "311.5", "historic": "boundary_stone", "man_made": "cairn", "name:no": "S\u00f8ndre Tjernsundsr\u00f8ysa", "name:sv": "S\u00f6dra Tj\u00e4rnsundsr\u00f6set", "note": "Riksr\u00f6se", "ref": "Rr103", "source": "Kartverket/Riksgrenseprotokollene", "start_date": "1755"}}, {"type": "node", "id": 40172993, "lat": 59.027904, "lon": 11.4311785}, {"type": "node", "id": 40173002, "lat": 64.0673687, "lon": 12.9982548, "tags": {"alt_name:no": "Vestre Gjevsj\u00f8r\u00f8ysa?", "description": "Riksr\u00f8ys 177A", "ele": "456.3", "height": "1.3", "historic": "boundary_stone", "man_made": "cairn", "name:no": "Linvikr\u00f8ysa", "name:sv": "V\u00e4stra Gjefsj\u00f6r\u00f6set?", "ref": "Rr177A", "source": "Kartverket/Riksgrenseprotokollene", "start_date": "1960", "width": "2.0"}}, {"type": "node", "id": 40173092, "lat": 68.9382336, "lon": 20.8495737}, {"type": "node", "id": 40173122, "lat": 59.869303, "lon": 11.8820129}, {"type": "node", "id": 40173267, "lat": 59.8137826, "lon": 11.8983861}, {"type": "node", "id": 40173325, "lat": 63.4599683, "lon": 12.1928705, "tags": {"description": "Riksr\u00f8ys 162Aa", "ele": "624.3", "height": "1.5", "historic": "boundary_stone", "man_made": "cairn", "ref": "Rr162Aa", "source": "Kartverket/Riksgrenseprotokollene", "start_date": "1960", "width": "2.0"}}, {"type": "node", "id": 40173358, "lat": 66.4843053, "lon": 15.3772268, "tags": {"description": "Riksr\u00f8ys 227. Riksmerke 280", "ele": "1212.6", "height": "1.5", "historic": "boundary_stone", "man_made": "cairn", "name:no": "Nasar\u00f8ysa", "name:sv": "Nasar\u00f6set", "old_name": "Nasa R\u00f8set;Nasa r\u00f8s", "ref": "Rr227", "source": "Kartverket/Riksgrenseprotokollene", "start_date": "1762", "width": "2.3"}}, {"type": "node", "id": 40173371, "lat": 64.5502252, "lon": 13.7508604, "tags": {"description": "Riksr\u00f8ys 194", "ele": "642.8", "historic": "boundary_stone", "man_made": "cairn", "name:no": "Kveliklumpr\u00f8ysa", "ref": "Rr194", "source": "Kartverket/Riksgrenseprotokollene", "start_date": "1760"}}, {"type": "node", "id": 40173426, "lat": 59.8719885, "lon": 11.8940105}, {"type": "node", "id": 40173440, "lat": 59.4912484, "lon": 11.7468886, "tags": {"description": "Riksr\u00f8ys 32", "historic": "boundary_stone", "man_made": "cairn", "name:no": "Klovsteinsr\u00f8ysa", "name:sv": "Klovstensr\u00f6set", "ref": "Rr32", "source": "Kartverket/Riksgrenseprotokollene", "start_date": "1753"}}, {"type": "node", "id": 40173448, "lat": 59.8180379, "lon": 11.8919953}, {"type": "node", "id": 40173567, "lat": 59.8564153, "lon": 11.8849599}, {"type": "node", "id": 40173572, "lat": 60.8901722, "lon": 12.3327904}, {"type": "node", "id": 40173588, "lat": 64.1325103, "lon": 14.094968, "tags": {"description": "Riksr\u00f8ys 186A", "ele": "407.2", "historic": "boundary_stone", "man_made": "cairn", "name:no": "R\u00f8rsj\u00f8r\u00f8ysa", "ref": "Rr186A", "source": "Kartverket/Riksgrenseprotokollene", "start_date": "1929"}}, {"type": "node", "id": 40173640, "lat": 59.7232618, "lon": 11.9364078}, {"type": "node", "id": 40173893, "lat": 59.7175762, "lon": 11.937067}, {"type": "node", "id": 40173995, "lat": 65.1189152, "lon": 14.3259858, "tags": {"description": "Riksr\u00f8ys 204. Riksmerke 257", "ele": "1208.3", "historic": "boundary_stone", "man_made": "cairn", "name:no": "Jetnamsr\u00f8ysa", "ref": "Rr204", "source": "Kartverket/Riksgrenseprotokollene", "start_date": "1760"}}, {"type": "node", "id": 40174021, "lat": 59.8295779, "lon": 11.858949}, {"type": "node", "id": 40174080, "lat": 59.6087812, "lon": 11.6979641, "tags": {"description": "Riksr\u00f8ys 38", "historic": "boundary_stone", "man_made": "cairn", "name:no": "Grindfossteinen", "name:sv": "Grindeforsr\u00f6set", "ref": "Rr38", "source": "Kartverket/Riksgrenseprotokollene", "start_date": "1753"}}, {"type": "node", "id": 40174160, "lat": 61.0271485, "lon": 12.2948175, "tags": {"description": "Riksr\u00f8ys 111", "ele": "438.2", "historic": "boundary_stone", "man_made": "cairn", "name:no": "H\u00f8ljefallsr\u00f8ysa", "ref": "Rr111", "source": "Kartverket/Riksgrenseprotokollene", "start_date": "1959"}}, {"type": "node", "id": 40174356, "lat": 59.6429945, "lon": 11.7788924}, {"type": "node", "id": 40174388, "lat": 66.6521287, "lon": 15.6969557, "tags": {"description": "Riksr\u00f8ys 230B", "ele": "1005.3", "height": "1.4", "historic": "boundary_stone", "man_made": "cairn", "name:no": "Dypen\u00e5fjellsr\u00f8ysa", "name:sv": "Dypen\u00e5fj\u00e4llsr\u00f6set", "ref": "Rr230B", "source": "Kartverket/Riksgrenseprotokollene", "start_date": "1930", "width": "2.0"}}, {"type": "node", "id": 40174448, "lat": 63.0003345, "lon": 12.218233, "tags": {"description": "Riksr\u00f8ys 155A. Riksmerke 208", "ele": "1712.8", "height": "1.9", "historic": "boundary_stone", "man_made": "cairn", "name:no": "Storsolar\u00f8ysa", "name:sv": "Storsola", "old_name": "Stor Sola", "ref": "Rr155A", "source": "Kartverket/Riksgrenseprotokollene", "start_date": "1929", "width": "2.4"}}, {"type": "node", "id": 40174488, "lat": 59.6958993, "lon": 11.9417782}, {"type": "node", "id": 40174540, "lat": 64.7115602, "lon": 13.7946307, "tags": {"description": "Riksr\u00f8ys 197", "historic": "boundary_stone", "man_made": "cairn", "name:no": "R\u00f8dikr\u00f8ysa", "ref": "Rr197", "source": "Kartverket/Riksgrenseprotokollene", "start_date": "1760"}}, {"type": "node", "id": 40174558, "lat": 59.0317047, "lon": 11.1265622}, {"type": "node", "id": 40174578, "lat": 58.8830654, "lon": 11.5128189}, {"type": "node", "id": 40174653, "lat": 59.6437844, "lon": 11.7902035, "tags": {"description": "Riksr\u00f8ys 44A", "height": "0.55/0.76", "historic": "boundary_stone", "man_made": "cairn", "ref": "Rr44A", "source": "Kartverket/Riksgrenseprotokollene", "start_date": "1753", "width": "1.6"}}, {"type": "node", "id": 40174658, "lat": 59.6387914, "lon": 11.7658486, "tags": {"description": "Riksr\u00f8ys 42A", "historic": "boundary_stone", "man_made": "cairn", "ref": "Rr42A", "source": "Kartverket/Riksgrenseprotokollene", "start_date": "1753"}}, {"type": "node", "id": 40174720, "lat": 58.9352602, "lon": 10.8784978}, {"type": "node", "id": 40174751, "lat": 64.0786971, "lon": 13.0849077, "tags": {"description": "Riksr\u00f8ys 178", "historic": "boundary_stone", "man_made": "cairn", "name:no": "Gjevsj\u00f8r\u00f8ysa", "ref": "Rr178", "source": "Kartverket/Riksgrenseprotokollene", "start_date": "1759"}}, {"type": "node", "id": 40174858, "lat": 59.8721443, "lon": 11.9005425}, {"type": "node", "id": 40174878, "lat": 60.9214207, "lon": 12.3047829, "tags": {"description": "Riksr\u00f8ys 105", "ele": "355.1", "historic": "boundary_stone", "man_made": "cairn", "name:sv": "Svartbacksr\u00f6set", "ref": "Rr105", "source": "Kartverket/Riksgrenseprotokollene", "start_date": "1755"}}, {"type": "node", "id": 40174920, "lat": 61.0464714, "lon": 12.6019194, "tags": {"description": "Riksr\u00f8ys 117A", "ele": "312.4", "historic": "boundary_stone", "man_made": "cairn", "ref": "Rr117A", "source": "Kartverket/Riksgrenseprotokollene", "start_date": "1961"}}, {"type": "node", "id": 40174927, "lat": 63.3147523, "lon": 12.0319366}, {"type": "node", "id": 40174947, "lat": 61.05073, "lon": 12.4476223, "tags": {"description": "Riksr\u00f8ys 113. Riksmerke 164", "height": "1.3", "historic": "boundary_stone", "man_made": "cairn", "name:no": "Var\u00e5r\u00f8ysa", "name:sv": "Var\u00e5r\u00f6set", "old_name": "Varaae R\u00f8set", "ref": "Rr113", "source": "Kartverket/Riksgrenseprotokollene", "start_date": "1756", "width": "3.0"}}, {"type": "node", "id": 40174971, "lat": 59.5895487, "lon": 11.6911282, "tags": {"description": "Riksr\u00f8ys 36", "ele": "179.4", "historic": "boundary_stone", "man_made": "cairn", "name:no": "M\u00f8rkesundr\u00f8ysa", "name:sv": "M\u00f6rkesundsr\u00f6set", "ref": "Rr36", "source": "Kartverket/Riksgrenseprotokollene", "start_date": "1753"}}, {"type": "node", "id": 40175023, "lat": 59.8346339, "lon": 11.847513, "tags": {"description": "Riksr\u00f8ys 53", "historic": "boundary_stone", "man_made": "cairn", "name:sv": "Hynnehedsr\u00f6set", "old_name": "Hyneheds R\u00f8set", "ref": "Rr53", "source": "Kartverket/Riksgrenseprotokollene", "start_date": "1753"}}, {"type": "node", "id": 40175041, "lat": 59.6254877, "lon": 11.7205576, "tags": {"description": "Riksr\u00f8ys 41", "ele": "216.2", "historic": "boundary_stone", "man_made": "cairn", "name:no": "Nordre Langvassr\u00f8ysa", "name:sv": "Norra L\u00e5ngvattsr\u00f6set", "ref": "Rr41", "source": "Kartverket/Riksgrenseprotokollene", "start_date": "1753"}}, {"type": "node", "id": 40175061, "lat": 59.7608796, "lon": 11.9331417}, {"type": "node", "id": 40175070, "lat": 59.1117629, "lon": 11.3262417}, {"type": "node", "id": 40175200, "lat": 59.8632097, "lon": 11.8837696}, {"type": "node", "id": 40175310, "lat": 59.6527409, "lon": 11.8624447, "tags": {"description": "Riksr\u00f8ys 47", "ele": "136.9", "historic": "boundary_stone", "man_made": "cairn", "name:no": "Mosehalsr\u00f8ysa", "ref": "Rr47", "source": "Kartverket/Riksgrenseprotokollene", "start_date": "1753"}}, {"type": "node", "id": 40175357, "lat": 63.4560403, "lon": 12.1886267}, {"type": "node", "id": 40175724, "lat": 62.6119192, "lon": 12.056144, "tags": {"description": "Riksr\u00f8ys 149. Riksmerke 201", "ele": "967.8", "height": "2.0", "historic": "boundary_stone", "man_made": "cairn", "name:no": "Rutr\u00f8ysa", "name:sv": "Ruter\u00f6set", "old_name": "Rut-R\u00f8set", "ref": "Rr149", "source": "Kartverket/Riksgrenseprotokollene", "start_date": "1758", "width": "2.5"}}, {"type": "node", "id": 40175754, "lat": 64.2584153, "lon": 14.1483204, "tags": {"description": "Riksr\u00f8ys 187A", "ele": "1265.2", "historic": "boundary_stone", "man_made": "cairn", "ref": "Rr187A", "source": "Kartverket/Riksgrenseprotokollene", "start_date": "1929"}}, {"type": "node", "id": 40175766, "lat": 59.7025404, "lon": 11.9370718}, {"type": "node", "id": 40175807, "lat": 61.7238176, "lon": 12.1376659, "tags": {"alt_name:no": "Herjehognar\u00f8ysa", "description": "Riksr\u00f8ys 136. Riksmerke 188", "ele": "1185", "height": "1.8-2.1", "historic": "boundary_stone", "man_made": "cairn", "name:no": "\u00d8sterhogna", "name:sv": "Herj\u00e5h\u00e5gnr\u00f6set", "natural": "peak", "old_name": "Herjehaagna R\u00f8set", "ref": "Rr136", "source": "Kartverket/Riksgrenseprotokollene", "start_date": "1757", "width": "3.5"}}, {"type": "node", "id": 40175874, "lat": 61.046833, "lon": 12.6125091, "tags": {"description": "Riksr\u00f8ys 118A", "ele": "305.9", "height": "0.8-1.4", "historic": "boundary_stone", "man_made": "cairn", "ref": "Rr118A", "source": "Kartverket/Riksgrenseprotokollene", "start_date": "1984", "width": "1.9"}}, {"type": "node", "id": 40175937, "lat": 64.5659664, "lon": 13.7004667, "tags": {"description": "Riksr\u00f8ys 194A", "historic": "boundary_stone", "man_made": "cairn", "name:no": "Lindalsr\u00f8ysa", "ref": "Rr194A", "source": "Kartverket/Riksgrenseprotokollene", "start_date": "1986"}}, {"type": "node", "id": 40176026, "lat": 64.7300989, "lon": 13.81732, "tags": {"description": "Riksr\u00f8ys 197A", "ele": "733.1", "height": "1.9", "historic": "boundary_stone", "man_made": "cairn", "name:no": "R\u00f8dikfjellr\u00f8ysa", "ref": "Rr197A", "source": "Kartverket/Riksgrenseprotokollene", "start_date": "1930", "width": "1.8(1.82)"}}, {"type": "node", "id": 40176145, "lat": 64.6139503, "lon": 13.6831189, "tags": {"description": "Riksr\u00f8ys 195A", "ele": "494.7", "historic": "boundary_stone", "man_made": "cairn", "name:no": "Godtj\u00f8nnr\u00f8ysa", "ref": "Rr195A", "source": "Kartverket/Riksgrenseprotokollene", "start_date": "1986"}}, {"type": "node", "id": 40176254, "lat": 59.8999587, "lon": 11.9857625}, {"type": "node", "id": 40176279, "lat": 58.9604662, "lon": 10.9832927}, {"type": "node", "id": 40176304, "lat": 62.943203, "lon": 12.1347816, "tags": {"description": "Riksr\u00f8ys 154. Riksmerke 206", "ele": "838.2", "height": "1.1", "historic": "boundary_stone", "man_made": "cairn", "name:no": "Near\u00f8ysa", "name:sv": "Near\u00f6set", "old_name": "Nea R\u00f8set", "ref": "Rr154", "source": "Kartverket/Riksgrenseprotokollene", "start_date": "1758", "width": "2.0"}}, {"type": "node", "id": 40176415, "lat": 59.7456833, "lon": 11.9254058}, {"type": "node", "id": 40176427, "lat": 63.749719, "lon": 12.3806113, "tags": {"description": "Riksr\u00f8ys 169. Riksmerke 222", "ele": "564.0", "height": "1.1", "historic": "boundary_stone", "man_made": "cairn", "name:no": "Lappr\u00f8ysa", "name:sv": "Lappr\u00f6set", "old_name": "Lap R\u00f8set", "ref": "Rr169", "source": "Kartverket/Riksgrenseprotokollene", "start_date": "1759", "width": "2.0"}}, {"type": "node", "id": 40176429, "lat": 62.842774, "lon": 12.0985467, "tags": {"description": "Riksr\u00f8ys 152A", "ele": "1248.1", "height": "1.7", "historic": "boundary_stone", "man_made": "cairn", "ref": "Rr152A", "source": "Kartverket/Riksgrenseprotokollene", "start_date": "1929", "width": "1.8"}}, {"type": "node", "id": 40176486, "lat": 61.0550631, "lon": 12.6684245, "tags": {"description": "Riksr\u00f8ys 119B", "ele": "386.2", "historic": "boundary_stone", "man_made": "cairn", "ref": "Rr119B", "source": "Kartverket/Riksgrenseprotokollene", "start_date": "1959"}}, {"type": "node", "id": 40176509, "lat": 60.8967804, "lon": 12.3268472, "tags": {"description": "Riksr\u00f8ys 104", "ele": "304.9", "historic": "boundary_stone", "man_made": "cairn", "name:sv": "Norra Tj\u00e4rnsundsr\u00f6set", "note": "Riksr\u00f6se", "ref": "Rr104", "source": "Kartverket/Riksgrenseprotokollene", "start_date": "1755"}}, {"type": "node", "id": 40176732, "lat": 64.0796458, "lon": 13.3784805, "tags": {"description": "Riksr\u00f8ys 180. Riksmerke 233", "ele": "1176.5", "height": "1.4", "historic": "boundary_stone", "man_made": "cairn", "name:no": "Allegaisr\u00f8ysa", "name:sv": "Alleregaiser\u00f6set", "old_name": "Allegais R\u00f8set", "ref": "Rr180", "source": "Kartverket/Riksgrenseprotokollene", "start_date": "1759", "width": "2.2"}}, {"type": "node", "id": 40176835, "lat": 59.8889065, "lon": 12.0334167, "tags": {"historic": "boundary_stone", "loc_name": "Kneggebergsholmene", "man_made": "cairn", "name": "Helgesj\u00f8en", "ref": "58A", "ssr:stedsnr": "838312"}}, {"type": "node", "id": 40176839, "lat": 62.8595813, "lon": 12.0918673, "tags": {"description": "Riksr\u00f8ys 152Aa", "ele": "1125.0", "height": "1.6", "historic": "boundary_stone", "man_made": "cairn", "ref": "Rr152Aa", "source": "Kartverket/Riksgrenseprotokollene", "start_date": "1960", "width": "2.0"}}, {"type": "node", "id": 40176899, "lat": 59.0984367, "lon": 11.36841}, {"type": "node", "id": 40176919, "lat": 61.0345415, "lon": 12.3421992, "tags": {"description": "Riksr\u00f8ys 111A", "ele": "558.5", "historic": "boundary_stone", "man_made": "cairn", "name:no": "Kvitkattlir\u00f8ysa", "ref": "Rr111A", "source": "Kartverket/Riksgrenseprotokollene", "start_date": "1959"}}, {"type": "node", "id": 40176958, "lat": 64.0644055, "lon": 14.026571, "tags": {"description": "Riksr\u00f8ys 185A", "ele": "356.9", "historic": "boundary_stone", "man_made": "cairn", "name:no": "S\u00f8re Rengsr\u00f8ysa", "ref": "Rr185A", "source": "Kartverket/Riksgrenseprotokollene", "start_date": "1929"}}, {"type": "node", "id": 40177039, "lat": 58.8893821, "lon": 11.5001149, "tags": {"fixme": "check position"}}, {"type": "node", "id": 40177215, "lat": 59.8909255, "lon": 12.0241256, "tags": {"description": "Riksr\u00f8ys 57A", "historic": "boundary_stone", "man_made": "cairn", "ref": "Rr57A", "source": "Kartverket/Riksgrenseprotokollene", "start_date": "1929"}}, {"type": "node", "id": 40177272, "lat": 61.0516308, "lon": 12.4875937, "tags": {"description": "Riksr\u00f8ys 114", "ele": "537.1", "historic": "boundary_stone", "man_made": "cairn", "name:no": "Storbergs Granholtsr\u00f8ysa", "ref": "Rr114", "source": "Kartverket/Riksgrenseprotokollene", "start_date": "1756"}}, {"type": "node", "id": 40177382, "lat": 59.6932083, "lon": 11.8892165, "tags": {"description": "Riksr\u00f8ys 51", "ele": "229.8", "historic": "boundary_stone", "man_made": "cairn", "name:no": "Blekketjern r\u00f8ys", "name:sv": "Bleketj\u00e4rnsr\u00f6set", "ref": "Rr51", "source": "Kartverket/Riksgrenseprotokollene", "start_date": "1753"}}, {"type": "node", "id": 40177464, "lat": 59.8717689, "lon": 11.8848055}, {"type": "node", "id": 40177473, "lat": 64.0909854, "lon": 14.0534287, "tags": {"description": "Riksr\u00f8ys 185B", "historic": "boundary_stone", "man_made": "cairn", "name:no": "Nordre Rengsr\u00f8ysa", "ref": "Rr185B", "source": "Kartverket/Riksgrenseprotokollene", "start_date": "1929"}}, {"type": "node", "id": 40177539, "lat": 63.5780355, "lon": 12.1584312, "tags": {"description": "Riksr\u00f8ys 164A", "ele": "786.9", "height": "1.2", "historic": "boundary_stone", "man_made": "cairn", "ref": "Rr164A", "source": "Kartverket/Riksgrenseprotokollene", "start_date": "1929", "width": "1.5"}}, {"type": "node", "id": 97105127, "lat": 57.5580303, "lon": 12.0883942}, {"type": "node", "id": 97105128, "lat": 57.5580461, "lon": 12.0881957}, {"type": "node", "id": 97105129, "lat": 57.5581233, "lon": 12.0879065}, {"type": "node", "id": 97105130, "lat": 57.5583305, "lon": 12.0876232}, {"type": "node", "id": 97105131, "lat": 57.5586712, "lon": 12.0871941}, {"type": "node", "id": 149321892, "lat": 57.5325544, "lon": 12.3179056}, {"type": "node", "id": 149321929, "lat": 57.4504797, "lon": 12.3456632}, {"type": "node", "id": 149321935, "lat": 57.446194, "lon": 12.3790599}, {"type": "node", "id": 149321948, "lat": 57.4101753, "lon": 12.4088775}, {"type": "node", "id": 149321963, "lat": 57.3515944, "lon": 12.3869607}, {"type": "node", "id": 149321969, "lat": 57.3196975, "lon": 12.4288019}, {"type": "node", "id": 149321975, "lat": 57.2691613, "lon": 12.4305344}, {"type": "node", "id": 149321983, "lat": 57.2810264, "lon": 12.5048937}, {"type": "node", "id": 149321991, "lat": 57.319437, "lon": 12.5372994}, {"type": "node", "id": 149321996, "lat": 57.3381728, "lon": 12.653954}, {"type": "node", "id": 149322001, "lat": 57.3277144, "lon": 12.6987147}, {"type": "node", "id": 149322009, "lat": 57.3010741, "lon": 12.8073441}, {"type": "node", "id": 149322016, "lat": 57.2688459, "lon": 12.862544}, {"type": "node", "id": 149322022, "lat": 57.2638103, "lon": 12.9295349}, {"type": "node", "id": 149322030, "lat": 57.2411413, "lon": 12.9540074}, {"type": "node", "id": 149322036, "lat": 57.2274321, "lon": 12.9349959}, {"type": "node", "id": 149322042, "lat": 57.1755281, "lon": 12.9278826}, {"type": "node", "id": 149322048, "lat": 57.1823552, "lon": 13.013134}, {"type": "node", "id": 149322054, "lat": 57.1778078, "lon": 13.0387544}, {"type": "node", "id": 149322060, "lat": 57.1547077, "lon": 13.0432713}, {"type": "node", "id": 149322067, "lat": 57.1511987, "lon": 13.0717993}, {"type": "node", "id": 149322072, "lat": 57.1577568, "lon": 13.08815}, {"type": "node", "id": 149323091, "lat": 56.9720987, "lon": 13.6807036}, {"type": "node", "id": 149323098, "lat": 56.9804594, "lon": 13.6669791}, {"type": "node", "id": 149323106, "lat": 57.023938, "lon": 13.6028146}, {"type": "node", "id": 149323113, "lat": 57.0651659, "lon": 13.5826444}, {"type": "node", "id": 149323118, "lat": 57.0852031, "lon": 13.5054826}, {"type": "node", "id": 149323122, "lat": 57.0949495, "lon": 13.4958267}, {"type": "node", "id": 149323128, "lat": 57.1137589, "lon": 13.4890031}, {"type": "node", "id": 149323133, "lat": 57.0972118, "lon": 13.45469}, {"type": "node", "id": 149323138, "lat": 57.1130006, "lon": 13.3590558}, {"type": "node", "id": 149323144, "lat": 57.0913542, "lon": 13.2718491}, {"type": "node", "id": 149323152, "lat": 57.0893315, "lon": 13.253932}, {"type": "node", "id": 149323156, "lat": 57.076808, "lon": 13.22932}, {"type": "node", "id": 149323161, "lat": 57.0251127, "lon": 13.1211948}, {"type": "node", "id": 149323167, "lat": 57.098832, "lon": 13.0790519}, {"type": "node", "id": 149323181, "lat": 57.1196053, "lon": 13.0931603}, {"type": "node", "id": 150766269, "lat": 68.9386702, "lon": 20.8517867}, {"type": "node", "id": 150767224, "lat": 69.0494318, "lon": 20.6096288}, {"type": "node", "id": 243503586, "lat": 68.7820525, "lon": 21.2680178}, {"type": "node", "id": 243503770, "lat": 68.2892371, "lon": 23.0661837}, {"type": "node", "id": 243503869, "lat": 67.9421864, "lon": 23.6632301}, {"type": "node", "id": 243503870, "lat": 67.9458835, "lon": 23.6592019}, {"type": "node", "id": 247671059, "lat": 59.5950639, "lon": 19.9406472, "tags": {"description": "59-35.703833N 19-56.438832E TP", "ref": "165", "related_law": "Lag (2017:1272) om Sveriges sj\u00f6territorium och maritima zoner", "related_law:url": "https://www.lagboken.se/Lagboken/start/eu-ratt-och-internationell-ratt/lag-20171272-om-sveriges-sjoterritorium-och-maritima-zoner/d_3134367-sfs-2017_1272-lag-om-sveriges-sjoterritorium-och-maritima-zoner"}}, {"type": "node", "id": 247671060, "lat": 59.7916833, "lon": 19.6582833, "tags": {"description": "59-47.501000N 19-39.497000E TP", "ref": "166", "related_law": "Lag (2017:1272) om Sveriges sj\u00f6territorium och maritima zoner", "related_law:url": "https://www.lagboken.se/Lagboken/start/eu-ratt-och-internationell-ratt/lag-20171272-om-sveriges-sjoterritorium-och-maritima-zoner/d_3134367-sfs-2017_1272-lag-om-sveriges-sjoterritorium-och-maritima-zoner"}}, {"type": "node", "id": 247673123, "lat": 60.378414, "lon": 19.1525262}, {"type": "node", "id": 249664674, "lat": 68.9800974, "lon": 20.8908756}, {"type": "node", "id": 249664675, "lat": 68.9904155, "lon": 20.8556528}, {"type": "node", "id": 249664676, "lat": 68.9975281, "lon": 20.8333283}, {"type": "node", "id": 249664677, "lat": 69.0188458, "lon": 20.8111293}, {"type": "node", "id": 249664678, "lat": 69.0318387, "lon": 20.7768152}, {"type": "node", "id": 249664679, "lat": 69.0466577, "lon": 20.6218683}, {"type": "node", "id": 249665028, "lat": 68.9418466, "lon": 20.8616052}, {"type": "node", "id": 249665539, "lat": 68.893529, "lon": 20.8780326}, {"type": "node", "id": 249665540, "lat": 68.8945597, "lon": 20.9102688}, {"type": "node", "id": 249665541, "lat": 68.8930383, "lon": 20.9761244}, {"type": "node", "id": 249665543, "lat": 68.8815998, "lon": 21.0472866}, {"type": "node", "id": 249665544, "lat": 68.8719349, "lon": 21.0748379}, {"type": "node", "id": 249665548, "lat": 68.8283072, "lon": 21.1845443}, {"type": "node", "id": 249665549, "lat": 68.8251138, "lon": 21.1849719}, {"type": "node", "id": 249665551, "lat": 68.8129476, "lon": 21.2366454}, {"type": "node", "id": 249665552, "lat": 68.7930094, "lon": 21.261116}, {"type": "node", "id": 249665674, "lat": 68.7598135, "lon": 21.3300638}, {"type": "node", "id": 249665675, "lat": 68.7627377, "lon": 21.3373078}, {"type": "node", "id": 249665676, "lat": 68.7671653, "lon": 21.3629172}, {"type": "node", "id": 249665677, "lat": 68.7647976, "lon": 21.3836441}, {"type": "node", "id": 249665680, "lat": 68.756113, "lon": 21.4032085}, {"type": "node", "id": 249665682, "lat": 68.7371536, "lon": 21.4060191}, {"type": "node", "id": 249665683, "lat": 68.7291887, "lon": 21.4149863}, {"type": "node", "id": 249665684, "lat": 68.7257464, "lon": 21.4098877}, {"type": "node", "id": 249665685, "lat": 68.7171207, "lon": 21.4206235}, {"type": "node", "id": 249665686, "lat": 68.7109161, "lon": 21.4126943}, {"type": "node", "id": 249665687, "lat": 68.7020093, "lon": 21.4227649}, {"type": "node", "id": 249665690, "lat": 68.6762817, "lon": 21.5086261}, {"type": "node", "id": 249665691, "lat": 68.6772227, "lon": 21.5211847}, {"type": "node", "id": 249665692, "lat": 68.6766447, "lon": 21.5566656}, {"type": "node", "id": 249665694, "lat": 68.6565067, "lon": 21.6253284}, {"type": "node", "id": 249665695, "lat": 68.6481186, "lon": 21.6525877}, {"type": "node", "id": 249665696, "lat": 68.6381069, "lon": 21.674897}, {"type": "node", "id": 249665697, "lat": 68.6306476, "lon": 21.7006282}, {"type": "node", "id": 249665698, "lat": 68.6245958, "lon": 21.7102514}, {"type": "node", "id": 249665699, "lat": 68.6173145, "lon": 21.711951}, {"type": "node", "id": 249665702, "lat": 68.5903063, "lon": 21.7174341}, {"type": "node", "id": 249665704, "lat": 68.5911604, "lon": 21.8380876}, {"type": "node", "id": 249665705, "lat": 68.5847555, "lon": 21.8878927}, {"type": "node", "id": 249665706, "lat": 68.5671319, "lon": 21.9284748}, {"type": "node", "id": 249665707, "lat": 68.5465725, "lon": 21.9697463}, {"type": "node", "id": 249665908, "lat": 68.4962274, "lon": 22.0157101}, {"type": "node", "id": 249665909, "lat": 68.4798454, "lon": 22.0426944}, {"type": "node", "id": 249665911, "lat": 68.4817744, "lon": 22.0813873}, {"type": "node", "id": 249665912, "lat": 68.478578, "lon": 22.1011417}, {"type": "node", "id": 249665913, "lat": 68.4820665, "lon": 22.1148322}, {"type": "node", "id": 249665914, "lat": 68.4788662, "lon": 22.1229935}, {"type": "node", "id": 249665915, "lat": 68.4716014, "lon": 22.128192}, {"type": "node", "id": 249665916, "lat": 68.4704698, "lon": 22.1541591}, {"type": "node", "id": 249665917, "lat": 68.4790849, "lon": 22.186768}, {"type": "node", "id": 249665918, "lat": 68.4800962, "lon": 22.2024327}, {"type": "node", "id": 249665919, "lat": 68.4732542, "lon": 22.2203373}, {"type": "node", "id": 249665920, "lat": 68.481675, "lon": 22.2476907}, {"type": "node", "id": 249665921, "lat": 68.4802002, "lon": 22.2840142}, {"type": "node", "id": 249665923, "lat": 68.4806725, "lon": 22.3267877}, {"type": "node", "id": 249665924, "lat": 68.4813337, "lon": 22.3499322}, {"type": "node", "id": 249665925, "lat": 68.4760093, "lon": 22.3471864}, {"type": "node", "id": 249665926, "lat": 68.4685139, "lon": 22.3433176}, {"type": "node", "id": 249665927, "lat": 68.4631839, "lon": 22.3491838}, {"type": "node", "id": 249665928, "lat": 68.4568896, "lon": 22.3437523}, {"type": "node", "id": 249665929, "lat": 68.4532923, "lon": 22.3447897}, {"type": "node", "id": 249665930, "lat": 68.4457393, "lon": 22.3428335}, {"type": "node", "id": 249665931, "lat": 68.4449381, "lon": 22.352044}, {"type": "node", "id": 249665932, "lat": 68.4655085, "lon": 22.4024828}, {"type": "node", "id": 249665933, "lat": 68.466251, "lon": 22.4144022}, {"type": "node", "id": 249665935, "lat": 68.4646305, "lon": 22.4306915}, {"type": "node", "id": 249665936, "lat": 68.4641768, "lon": 22.437388}, {"type": "node", "id": 249665937, "lat": 68.4603757, "lon": 22.4379339}, {"type": "node", "id": 249665938, "lat": 68.4530661, "lon": 22.4496187}, {"type": "node", "id": 249665939, "lat": 68.4413001, "lon": 22.4661749}, {"type": "node", "id": 249665940, "lat": 68.4429608, "lon": 22.4785388}, {"type": "node", "id": 249665941, "lat": 68.442564, "lon": 22.4924368}, {"type": "node", "id": 249665942, "lat": 68.4342728, "lon": 22.5413356}, {"type": "node", "id": 249665943, "lat": 68.4341859, "lon": 22.5548958}, {"type": "node", "id": 249665944, "lat": 68.4236736, "lon": 22.5693826}, {"type": "node", "id": 249665945, "lat": 68.4219251, "lon": 22.5777676}, {"type": "node", "id": 249665946, "lat": 68.4244174, "lon": 22.5872952}, {"type": "node", "id": 249665947, "lat": 68.4254458, "lon": 22.6010301}, {"type": "node", "id": 249665948, "lat": 68.42967, "lon": 22.619966}, {"type": "node", "id": 249665949, "lat": 68.4343417, "lon": 22.6241367}, {"type": "node", "id": 249665950, "lat": 68.4346906, "lon": 22.6342034}, {"type": "node", "id": 249665951, "lat": 68.4319373, "lon": 22.6439239}, {"type": "node", "id": 249665952, "lat": 68.4220108, "lon": 22.6405148}, {"type": "node", "id": 249665953, "lat": 68.4167643, "lon": 22.6462197}, {"type": "node", "id": 249665954, "lat": 68.413206, "lon": 22.6637764}, {"type": "node", "id": 249665955, "lat": 68.412103, "lon": 22.6761842}, {"type": "node", "id": 249665956, "lat": 68.4061587, "lon": 22.6915262}, {"type": "node", "id": 249665957, "lat": 68.3998319, "lon": 22.687743}, {"type": "node", "id": 249665958, "lat": 68.3945259, "lon": 22.723124}, {"type": "node", "id": 249665959, "lat": 68.3858089, "lon": 22.7340733}, {"type": "node", "id": 249665960, "lat": 68.3863445, "lon": 22.7705227}, {"type": "node", "id": 249665961, "lat": 68.3896233, "lon": 22.7782655}, {"type": "node", "id": 249665962, "lat": 68.3932842, "lon": 22.8028778}, {"type": "node", "id": 249665963, "lat": 68.3892405, "lon": 22.8114177}, {"type": "node", "id": 249665964, "lat": 68.3866868, "lon": 22.8333306}, {"type": "node", "id": 249665965, "lat": 68.3829642, "lon": 22.844843}, {"type": "node", "id": 249665966, "lat": 68.3781763, "lon": 22.8421091}, {"type": "node", "id": 249665967, "lat": 68.3661248, "lon": 22.8359951}, {"type": "node", "id": 249665968, "lat": 68.3606954, "lon": 22.8516947}, {"type": "node", "id": 249665969, "lat": 68.3521525, "lon": 22.8761669}, {"type": "node", "id": 249665971, "lat": 68.3335115, "lon": 22.9181313}, {"type": "node", "id": 249665972, "lat": 68.3318483, "lon": 22.9737585}, {"type": "node", "id": 249665973, "lat": 68.3214699, "lon": 22.9849748}, {"type": "node", "id": 249665974, "lat": 68.3070041, "lon": 23.0393242}, {"type": "node", "id": 249665975, "lat": 68.3069059, "lon": 23.0483042}, {"type": "node", "id": 249665976, "lat": 68.3002928, "lon": 23.0697009}, {"type": "node", "id": 249666137, "lat": 68.2798306, "lon": 23.0650735}, {"type": "node", "id": 249666138, "lat": 68.2667778, "lon": 23.078487}, {"type": "node", "id": 249666139, "lat": 68.2521204, "lon": 23.1111652}, {"type": "node", "id": 249666140, "lat": 68.2479097, "lon": 23.141927}, {"type": "node", "id": 249666141, "lat": 68.2333806, "lon": 23.152641}, {"type": "node", "id": 249666142, "lat": 68.2164654, "lon": 23.1435354}, {"type": "node", "id": 249666143, "lat": 68.2041799, "lon": 23.1422307}, {"type": "node", "id": 249666144, "lat": 68.198743, "lon": 23.1594962}, {"type": "node", "id": 249666145, "lat": 68.1950635, "lon": 23.1613439}, {"type": "node", "id": 249666146, "lat": 68.1904906, "lon": 23.1500504}, {"type": "node", "id": 249666147, "lat": 68.1543005, "lon": 23.1415318}, {"type": "node", "id": 249666148, "lat": 68.135371, "lon": 23.1572745}, {"type": "node", "id": 249666149, "lat": 68.1334248, "lon": 23.1711556}, {"type": "node", "id": 249666150, "lat": 68.1375838, "lon": 23.1856034}, {"type": "node", "id": 249666151, "lat": 68.1388414, "lon": 23.1969642}, {"type": "node", "id": 249666152, "lat": 68.1461347, "lon": 23.2149385}, {"type": "node", "id": 249666153, "lat": 68.148844, "lon": 23.2501244}, {"type": "node", "id": 249666154, "lat": 68.1523351, "lon": 23.2569133}, {"type": "node", "id": 249666155, "lat": 68.1542071, "lon": 23.2867684}, {"type": "node", "id": 249666156, "lat": 68.149802, "lon": 23.2910511}, {"type": "node", "id": 249666157, "lat": 68.1494982, "lon": 23.2921235}, {"type": "node", "id": 249666158, "lat": 68.1338241, "lon": 23.3222232}, {"type": "node", "id": 249666159, "lat": 68.1145001, "lon": 23.329432}, {"type": "node", "id": 249666161, "lat": 68.0809593, "lon": 23.3599506}, {"type": "node", "id": 249666163, "lat": 68.0620402, "lon": 23.3722407}, {"type": "node", "id": 249666164, "lat": 68.0566977, "lon": 23.3858452}, {"type": "node", "id": 249666165, "lat": 68.0509867, "lon": 23.3856001}, {"type": "node", "id": 249666166, "lat": 68.0435418, "lon": 23.3992716}, {"type": "node", "id": 249666167, "lat": 68.0372206, "lon": 23.4428246}, {"type": "node", "id": 249666168, "lat": 68.0303716, "lon": 23.465662}, {"type": "node", "id": 249666169, "lat": 68.0277116, "lon": 23.4657749}, {"type": "node", "id": 249666170, "lat": 68.0191502, "lon": 23.4712943}, {"type": "node", "id": 249666171, "lat": 68.0043041, "lon": 23.5368679}, {"type": "node", "id": 249666172, "lat": 67.9977087, "lon": 23.5370465}, {"type": "node", "id": 249666173, "lat": 67.9826285, "lon": 23.5531418}, {"type": "node", "id": 249666174, "lat": 67.9717872, "lon": 23.5785266}, {"type": "node", "id": 249666175, "lat": 67.9721454, "lon": 23.6011704}, {"type": "node", "id": 249666176, "lat": 67.9655136, "lon": 23.6389789}, {"type": "node", "id": 249666177, "lat": 67.9589433, "lon": 23.6525654}, {"type": "node", "id": 249666178, "lat": 67.9526302, "lon": 23.6504388}, {"type": "node", "id": 249666366, "lat": 67.9261513, "lon": 23.6451363}, {"type": "node", "id": 249666367, "lat": 67.9170937, "lon": 23.6437317}, {"type": "node", "id": 249666368, "lat": 67.9089642, "lon": 23.6226631}, {"type": "node", "id": 249666369, "lat": 67.9019667, "lon": 23.5941493}, {"type": "node", "id": 249666370, "lat": 67.8924582, "lon": 23.578966}, {"type": "node", "id": 249666371, "lat": 67.8975994, "lon": 23.5534762}, {"type": "node", "id": 249666372, "lat": 67.8894623, "lon": 23.5405155}, {"type": "node", "id": 249666373, "lat": 67.8831198, "lon": 23.5147258}, {"type": "node", "id": 249666374, "lat": 67.8593996, "lon": 23.4925818}, {"type": "node", "id": 249666375, "lat": 67.8462376, "lon": 23.4894086}, {"type": "node", "id": 249666376, "lat": 67.8433766, "lon": 23.4797918}, {"type": "node", "id": 249666377, "lat": 67.8274881, "lon": 23.48285}, {"type": "node", "id": 249666378, "lat": 67.8210731, "lon": 23.4768935}, {"type": "node", "id": 249666379, "lat": 67.7991432, "lon": 23.4823743}, {"type": "node", "id": 249666380, "lat": 67.7913369, "lon": 23.4945736}, {"type": "node", "id": 249666381, "lat": 67.7834207, "lon": 23.4926992}, {"type": "node", "id": 249666382, "lat": 67.7773473, "lon": 23.4849572}, {"type": "node", "id": 249666383, "lat": 67.7640992, "lon": 23.4918236}, {"type": "node", "id": 249666384, "lat": 67.7546009, "lon": 23.4922739}, {"type": "node", "id": 249666386, "lat": 67.7286811, "lon": 23.4867852}, {"type": "node", "id": 249666387, "lat": 67.7223446, "lon": 23.4789372}, {"type": "node", "id": 249666388, "lat": 67.7054865, "lon": 23.4833392}, {"type": "node", "id": 249666389, "lat": 67.7014666, "lon": 23.4800094}, {"type": "node", "id": 249666390, "lat": 67.6947559, "lon": 23.4932413}, {"type": "node", "id": 249666391, "lat": 67.6891453, "lon": 23.4904503}, {"type": "node", "id": 249666392, "lat": 67.6815397, "lon": 23.4993028}, {"type": "node", "id": 249666393, "lat": 67.6652745, "lon": 23.4922491}, {"type": "node", "id": 249666394, "lat": 67.6311104, "lon": 23.5409533}, {"type": "node", "id": 249666395, "lat": 67.6244097, "lon": 23.5412621}, {"type": "node", "id": 249666396, "lat": 67.6208101, "lon": 23.5587089}, {"type": "node", "id": 249666397, "lat": 67.6130775, "lon": 23.546492}, {"type": "node", "id": 249666398, "lat": 67.6034892, "lon": 23.5395455}, {"type": "node", "id": 249666399, "lat": 67.5847357, "lon": 23.5450863}, {"type": "node", "id": 249666400, "lat": 67.5775715, "lon": 23.5385729}, {"type": "node", "id": 249666401, "lat": 67.576241, "lon": 23.5301191}, {"type": "node", "id": 249666402, "lat": 67.564336, "lon": 23.5123053}, {"type": "node", "id": 249666403, "lat": 67.5642555, "lon": 23.4974899}, {"type": "node", "id": 249666404, "lat": 67.5666341, "lon": 23.4904309}, {"type": "node", "id": 249666405, "lat": 67.5649113, "lon": 23.4677537}, {"type": "node", "id": 249666406, "lat": 67.5621675, "lon": 23.4595242}, {"type": "node", "id": 249666407, "lat": 67.5503203, "lon": 23.4653878}, {"type": "node", "id": 249666408, "lat": 67.5401886, "lon": 23.4832027}, {"type": "node", "id": 249666409, "lat": 67.5297413, "lon": 23.4748225}, {"type": "node", "id": 249666410, "lat": 67.5246304, "lon": 23.4566651}, {"type": "node", "id": 249666411, "lat": 67.5175973, "lon": 23.4383178}, {"type": "node", "id": 249666412, "lat": 67.5074641, "lon": 23.4330153}, {"type": "node", "id": 249666413, "lat": 67.5035457, "lon": 23.422038}, {"type": "node", "id": 249666414, "lat": 67.5000876, "lon": 23.4055629}, {"type": "node", "id": 249666415, "lat": 67.4961523, "lon": 23.4065827}, {"type": "node", "id": 249666416, "lat": 67.4898035, "lon": 23.3970666}, {"type": "node", "id": 249666417, "lat": 67.4851454, "lon": 23.3944185}, {"type": "node", "id": 249666418, "lat": 67.4777079, "lon": 23.4046197}, {"type": "node", "id": 249666419, "lat": 67.4661373, "lon": 23.4154219}, {"type": "node", "id": 249666420, "lat": 67.4624032, "lon": 23.4349083}, {"type": "node", "id": 249666421, "lat": 67.4593114, "lon": 23.4431457}, {"type": "node", "id": 249666422, "lat": 67.4538932, "lon": 23.4598946}, {"type": "node", "id": 249666423, "lat": 67.4510936, "lon": 23.4837534}, {"type": "node", "id": 249666424, "lat": 67.4463886, "lon": 23.4938836}, {"type": "node", "id": 249666425, "lat": 67.4485704, "lon": 23.5169645}, {"type": "node", "id": 249666426, "lat": 67.455138, "lon": 23.5229184}, {"type": "node", "id": 249666427, "lat": 67.4607724, "lon": 23.540046}, {"type": "node", "id": 249666428, "lat": 67.457842, "lon": 23.5670208}, {"type": "node", "id": 249666429, "lat": 67.4534983, "lon": 23.5845303}, {"type": "node", "id": 249666430, "lat": 67.4495553, "lon": 23.6282235}, {"type": "node", "id": 249666431, "lat": 67.4461252, "lon": 23.6580014}, {"type": "node", "id": 249666432, "lat": 67.4426145, "lon": 23.6729528}, {"type": "node", "id": 249666433, "lat": 67.4459292, "lon": 23.7082392}, {"type": "node", "id": 249666434, "lat": 67.4353248, "lon": 23.7517285}, {"type": "node", "id": 249666435, "lat": 67.4303181, "lon": 23.7627148}, {"type": "node", "id": 249666436, "lat": 67.4262029, "lon": 23.7632859}, {"type": "node", "id": 249666437, "lat": 67.42111, "lon": 23.753104}, {"type": "node", "id": 249666438, "lat": 67.4079129, "lon": 23.751809}, {"type": "node", "id": 249666439, "lat": 67.3946717, "lon": 23.7310657}, {"type": "node", "id": 249666453, "lat": 67.3912506, "lon": 23.7192423}, {"type": "node", "id": 249666454, "lat": 67.3866022, "lon": 23.7172007}, {"type": "node", "id": 249666455, "lat": 67.3794586, "lon": 23.734474}, {"type": "node", "id": 249666456, "lat": 67.3697318, "lon": 23.7298543}, {"type": "node", "id": 249666457, "lat": 67.3564847, "lon": 23.7411057}, {"type": "node", "id": 249666458, "lat": 67.3517213, "lon": 23.7379194}, {"type": "node", "id": 249666459, "lat": 67.3484211, "lon": 23.7603523}, {"type": "node", "id": 249666460, "lat": 67.3362485, "lon": 23.773659}, {"type": "node", "id": 249667242, "lat": 67.3343468, "lon": 23.7710859}, {"type": "node", "id": 249667244, "lat": 67.3273525, "lon": 23.755225}, {"type": "node", "id": 249667245, "lat": 67.3172395, "lon": 23.7490422}, {"type": "node", "id": 249667247, "lat": 67.2818443, "lon": 23.7161667}, {"type": "node", "id": 249667248, "lat": 67.2828196, "lon": 23.6871374}, {"type": "node", "id": 249667249, "lat": 67.2777167, "lon": 23.6470543}, {"type": "node", "id": 249667250, "lat": 67.2715363, "lon": 23.6202929}, {"type": "node", "id": 249667251, "lat": 67.2730488, "lon": 23.6034408}, {"type": "node", "id": 249667252, "lat": 67.2667185, "lon": 23.5727443}, {"type": "node", "id": 249667253, "lat": 67.2611262, "lon": 23.5611943}, {"type": "node", "id": 249667254, "lat": 67.25243, "lon": 23.5695185}, {"type": "node", "id": 249667255, "lat": 67.2470348, "lon": 23.5519178}, {"type": "node", "id": 249667257, "lat": 67.2371897, "lon": 23.5622694}, {"type": "node", "id": 249667258, "lat": 67.225595, "lon": 23.5462387}, {"type": "node", "id": 249667259, "lat": 67.2218271, "lon": 23.5675694}, {"type": "node", "id": 249667260, "lat": 67.2093258, "lon": 23.5941966}, {"type": "node", "id": 249667261, "lat": 67.198465, "lon": 23.585031}, {"type": "node", "id": 249667262, "lat": 67.1914074, "lon": 23.5883357}, {"type": "node", "id": 249667263, "lat": 67.181273, "lon": 23.5590604}, {"type": "node", "id": 249667264, "lat": 67.1721154, "lon": 23.5518919}, {"type": "node", "id": 249667265, "lat": 67.1601951, "lon": 23.5671342}, {"type": "node", "id": 249668146, "lat": 67.1255018, "lon": 23.6182458}, {"type": "node", "id": 249668147, "lat": 67.1152297, "lon": 23.6301036}, {"type": "node", "id": 249668148, "lat": 67.1042345, "lon": 23.6536532}, {"type": "node", "id": 249668149, "lat": 67.0883174, "lon": 23.6652111}, {"type": "node", "id": 249668150, "lat": 67.07801, "lon": 23.6650609}, {"type": "node", "id": 249668151, "lat": 67.0650834, "lon": 23.6739708}, {"type": "node", "id": 249668152, "lat": 67.0388128, "lon": 23.713963}, {"type": "node", "id": 249668153, "lat": 67.0181784, "lon": 23.7386822}, {"type": "node", "id": 249668154, "lat": 67.0011248, "lon": 23.7671651}, {"type": "node", "id": 249668155, "lat": 66.9884032, "lon": 23.8009864}, {"type": "node", "id": 249668156, "lat": 66.983822, "lon": 23.7997393}, {"type": "node", "id": 249668157, "lat": 66.9803478, "lon": 23.8107705}, {"type": "node", "id": 249668158, "lat": 66.9697331, "lon": 23.8247504}, {"type": "node", "id": 249668159, "lat": 66.9619214, "lon": 23.828072}, {"type": "node", "id": 249668160, "lat": 66.9573479, "lon": 23.8525565}, {"type": "node", "id": 249668161, "lat": 66.9388439, "lon": 23.8648518}, {"type": "node", "id": 249668162, "lat": 66.9192828, "lon": 23.8661554}, {"type": "node", "id": 249668163, "lat": 66.9018681, "lon": 23.8996628}, {"type": "node", "id": 249668164, "lat": 66.8884971, "lon": 23.9166222}, {"type": "node", "id": 249668165, "lat": 66.8845665, "lon": 23.9330592}, {"type": "node", "id": 249668166, "lat": 66.8682672, "lon": 23.9502815}, {"type": "node", "id": 249668167, "lat": 66.8634152, "lon": 23.9538141}, {"type": "node", "id": 249668168, "lat": 66.8499013, "lon": 23.9693568}, {"type": "node", "id": 249668169, "lat": 66.8420993, "lon": 23.9717055}, {"type": "node", "id": 249668170, "lat": 66.820164, "lon": 23.995265}, {"type": "node", "id": 249668172, "lat": 66.7957635, "lon": 23.9770284}, {"type": "node", "id": 249668173, "lat": 66.7870667, "lon": 23.9826085}, {"type": "node", "id": 249668174, "lat": 66.7831825, "lon": 23.9737816}, {"type": "node", "id": 249668175, "lat": 66.7824198, "lon": 23.9610688}, {"type": "node", "id": 249668176, "lat": 66.7957218, "lon": 23.922007}, {"type": "node", "id": 249668177, "lat": 66.792853, "lon": 23.9084345}, {"type": "node", "id": 249668178, "lat": 66.7719056, "lon": 23.9150289}, {"type": "node", "id": 249668179, "lat": 66.7704128, "lon": 23.8937133}, {"type": "node", "id": 249668180, "lat": 66.7553863, "lon": 23.8778788}, {"type": "node", "id": 249668181, "lat": 66.7500204, "lon": 23.8861538}, {"type": "node", "id": 249668182, "lat": 66.7235332, "lon": 23.9061649}, {"type": "node", "id": 249668183, "lat": 66.6947459, "lon": 23.8883995}, {"type": "node", "id": 249668184, "lat": 66.675388, "lon": 23.8905464}, {"type": "node", "id": 249668185, "lat": 66.6568254, "lon": 23.8685321}, {"type": "node", "id": 249668186, "lat": 66.6311238, "lon": 23.870085}, {"type": "node", "id": 249668187, "lat": 66.6155041, "lon": 23.8843443}, {"type": "node", "id": 249668188, "lat": 66.6031079, "lon": 23.8772019}, {"type": "node", "id": 249668189, "lat": 66.5800475, "lon": 23.8794879}, {"type": "node", "id": 249668190, "lat": 66.573807, "lon": 23.8685192}, {"type": "node", "id": 249668191, "lat": 66.5595503, "lon": 23.8605347}, {"type": "node", "id": 249668192, "lat": 66.5333832, "lon": 23.7844113}, {"type": "node", "id": 249668193, "lat": 66.5231909, "lon": 23.7971965}, {"type": "node", "id": 249668194, "lat": 66.5170144, "lon": 23.7947131}, {"type": "node", "id": 249668195, "lat": 66.5140942, "lon": 23.775313}, {"type": "node", "id": 249668196, "lat": 66.4926798, "lon": 23.7148358}, {"type": "node", "id": 249668197, "lat": 66.4765463, "lon": 23.7183686}, {"type": "node", "id": 249668198, "lat": 66.4570295, "lon": 23.6529643}, {"type": "node", "id": 249668199, "lat": 66.4246457, "lon": 23.6434219}, {"type": "node", "id": 249668200, "lat": 66.3902938, "lon": 23.6873533}, {"type": "node", "id": 249668201, "lat": 66.3777947, "lon": 23.6860491}, {"type": "node", "id": 249668202, "lat": 66.3566887, "lon": 23.6629756}, {"type": "node", "id": 249668203, "lat": 66.3406222, "lon": 23.657853}, {"type": "node", "id": 249668204, "lat": 66.3042408, "lon": 23.6464535}, {"type": "node", "id": 249668205, "lat": 66.2879587, "lon": 23.660978}, {"type": "node", "id": 249668206, "lat": 66.2613931, "lon": 23.6671136}, {"type": "node", "id": 249668207, "lat": 66.2421571, "lon": 23.7014126}, {"type": "node", "id": 249668208, "lat": 66.2273696, "lon": 23.6955099}, {"type": "node", "id": 249668209, "lat": 66.2137198, "lon": 23.7253992}, {"type": "node", "id": 249668210, "lat": 66.1913023, "lon": 23.7581855}, {"type": "node", "id": 249668211, "lat": 66.1869936, "lon": 23.7818994}, {"type": "node", "id": 249668212, "lat": 66.1719192, "lon": 23.8262508}, {"type": "node", "id": 250524554, "lat": 63.1664346, "lon": 20.1635668, "tags": {"description": "63-09.986073N 20-09.814008E TP", "ref": "210", "related_law": "Lag (2017:1272) om Sveriges sj\u00f6territorium och maritima zoner", "related_law:url": "https://www.lagboken.se/Lagboken/start/eu-ratt-och-internationell-ratt/lag-20171272-om-sveriges-sjoterritorium-och-maritima-zoner/d_3134367-sfs-2017_1272-lag-om-sveriges-sjoterritorium-och-maritima-zoner"}}, {"type": "node", "id": 250839639, "lat": 57.5625448, "lon": 11.9249896}, {"type": "node", "id": 251356718, "lat": 59.9318551, "lon": 12.2434225, "tags": {"railway": "technical_station", "ref": "Cggr"}}, {"type": "node", "id": 253896718, "lat": 67.9395103, "lon": 23.662941}, {"type": "node", "id": 253896719, "lat": 67.9371109, "lon": 23.6557245}, {"type": "node", "id": 253897305, "lat": 67.9688485, "lon": 23.6160069}, {"type": "node", "id": 253898664, "lat": 67.9544384, "lon": 23.6513999}, {"type": "node", "id": 253899757, "lat": 67.9214605, "lon": 23.6465934}, {"type": "node", "id": 253899759, "lat": 67.9108579, "lon": 23.6261142}, {"type": "node", "id": 253899761, "lat": 67.9131261, "lon": 23.6354995}, {"type": "node", "id": 253899763, "lat": 67.9068019, "lon": 23.6093922}, {"type": "node", "id": 253899765, "lat": 67.9053977, "lon": 23.6068235}, {"type": "node", "id": 253899767, "lat": 67.8951315, "lon": 23.5875225}, {"type": "node", "id": 253900268, "lat": 67.9636054, "lon": 23.6453831}, {"type": "node", "id": 253900269, "lat": 67.9082307, "lon": 23.6204445}, {"type": "node", "id": 267783729, "lat": 68.9634308, "lon": 20.9129845}, {"type": "node", "id": 270893581, "lat": 56.5736013, "lon": 13.0104804}, {"type": "node", "id": 270893583, "lat": 56.5736108, "lon": 13.012512}, {"type": "node", "id": 270893585, "lat": 56.573791, "lon": 13.0143067}, {"type": "node", "id": 270893586, "lat": 56.5731798, "lon": 13.0154787}, {"type": "node", "id": 270893588, "lat": 56.5732036, "lon": 13.0165117}, {"type": "node", "id": 270893590, "lat": 56.5739804, "lon": 13.0202658}, {"type": "node", "id": 270893591, "lat": 56.5752781, "lon": 13.0213969}, {"type": "node", "id": 271875383, "lat": 56.7118232, "lon": 13.3229091}, {"type": "node", "id": 271875384, "lat": 56.7305092, "lon": 13.3166184}, {"type": "node", "id": 278505505, "lat": 67.9037249, "lon": 23.5980951}, {"type": "node", "id": 279632010, "lat": 54.8316638, "lon": 9.4629539}, {"type": "node", "id": 279632011, "lat": 54.8603568, "lon": 9.5346829}, {"type": "node", "id": 279632014, "lat": 54.8868518, "lon": 9.5927151}, {"type": "node", "id": 279632259, "lat": 54.8280068, "lon": 9.4377719}, {"type": "node", "id": 279632260, "lat": 54.8545174, "lon": 9.6046324}, {"type": "node", "id": 279632262, "lat": 54.8417955, "lon": 9.8943068}, {"type": "node", "id": 283129538, "lat": 66.8012945, "lon": 23.9856575},